[
{"field1":"1","Institution":"A. B. Lucas Secondary School","State":"Ontario","Address":"656 Tennent Ave London ON N5X 1L8 Canada","Latitude":"43.032586","Longitude":"-81.2470804","Club":"","Seasons":{"Participated":"3"}},
{"field1":"2","Institution":"A. N. Myer Secondary School","State":"Ontario","Address":"6338 O'Neil St Niagara Falls ON L2J 1M7 Canada","Latitude":"43.1223662","Longitude":"-79.1018089","Club":"","Seasons":{"Participated":"1"}},
{"field1":"3","Institution":"A. R. Johnson Health Science and Engineering Magnet High School","State":"Georgia","Address":"1324 Laney Walker Blvd Augusta GA 30901","Latitude":"33.4653987","Longitude":"-81.9810937","Club":"","Seasons":{"Participated":"1"}},
{"field1":"4","Institution":"A. Y. Jackson Secondary School","State":"Ontario","Address":"50 Francine Dr Toronto ON M2H 2G6 Canada","Latitude":"43.8046836","Longitude":"-79.3669714","Club":"","Seasons":{"Participated":"6"}},
{"field1":"5","Institution":"Abbotsford Senior Secondary School","State":"British Columbia","Address":"33355 Bevan Ave Abbotsford BC V2S 0E7 Canada","Latitude":"49.043468","Longitude":"-122.2999349","Club":"","Seasons":{"Participated":"1"}},
{"field1":"6","Institution":"Abilene High School","State":"Texas","Address":"2800 N 6th St  Abilene  TX 79603  United States","Latitude":"32.4562","Longitude":"-99.756","Club":"","Seasons":{"Participated":"2"}},
{"field1":"7","Institution":"Abilene Wylie High School","State":"Texas","Address":"4502 Antilley Rd Abilene TX 79606","Latitude":"32.3746816","Longitude":"-99.7842063","Club":"","Seasons":{"Participated":"1"}},
{"field1":"8","Institution":"Abingdon High School","State":"Virginia","Address":"705 Thompson Dr Abingdon VA 24210","Latitude":"36.7205411","Longitude":"-81.9538161","Club":"","Seasons":{"Participated":"1"}},
{"field1":"9","Institution":"Abraham Clark High School","State":"New Jersey","Address":"122 E 6th Ave  Roselle  NJ 07203  United States","Latitude":"40.6535","Longitude":"-74.262","Club":"","Seasons":{"Participated":"2"}},
{"field1":"10","Institution":"Abraham Lincoln High School","State":"New York","Address":"2800 Ocean Pkwy Brooklyn NY 11235","Latitude":"40.5823896","Longitude":"-73.9686225","Club":"","Seasons":{"Participated":"3"}},
{"field1":"11","Institution":"Academies Englewood","State":"New Jersey","Address":"264 Knickerbocker Rd  Englewood  NJ 07631","Latitude":"40.90741","Longitude":"-73.9806","Club":"","Seasons":{"Participated":"1"}},
{"field1":"12","Institution":"Academy at Palumbo","State":"Pennsylvania","Address":"1100 Catharine St Philadelphia PA 19147","Latitude":"39.9400004","Longitude":"-75.1616412","Club":"Yes","Seasons":{"Participated":"2"}},
{"field1":"13","Institution":"Academy at the Lakes","State":"Florida","Address":"2331 Collier Pkwy  Land O Lakes  FL 34639  United States","Latitude":"28.19106","Longitude":"-82.4375","Club":"","Seasons":{"Participated":"1"}},
{"field1":"14","Institution":"Academy for Science and Agriculture High School","State":"Minnesota","Address":"100 Vadnais Blvd Vadnais Heights MN 55127","Latitude":"45.0462469","Longitude":"-93.0960853","Club":"","Seasons":{"Participated":"2"}},
{"field1":"15","Institution":"Academy for the Arts Science and Technology","State":"South Carolina","Address":"895 International Dr Myrtle Beach SC 29579","Latitude":"33.7642358","Longitude":"-78.8676348","Club":"","Seasons":{"Participated":"2"}},
{"field1":"16","Institution":"Academy of Aerospace and Engineering","State":"Connecticut","Address":"1101 Kennedy Rd Windsor CT","Latitude":"41.895294","Longitude":"-72.6530267","Club":"","Seasons":{"Participated":"1"}},
{"field1":"17","Institution":"Academy of Information Technology and Engineering","State":"Connecticut","Address":"411 High Ridge Rd Stamford CT 06905","Latitude":"41.0846373","Longitude":"-73.546395","Club":"No","Seasons":{"Participated":"3"}},
{"field1":"18","Institution":"Academy of the Canyons Middle College High School","State":"California","Address":"26455 North Rockwell Canyon Santa Clarita CA 91355","Latitude":"34.4050629","Longitude":"-118.5676959","Club":"","Seasons":{"Participated":"3"}},
{"field1":"19","Institution":"Academy With Community Partner","State":"Arizona","Address":"433 N Hall  Mesa  AZ 85203  United States","Latitude":"33.4238","Longitude":"-111.79","Club":"","Seasons":{"Participated":"1"}},
{"field1":"20","Institution":"Acalanes High School","State":"California","Address":"1200 Pleasant Hill Rd Lafayette CA 94549","Latitude":"37.9029113","Longitude":"-122.0975344","Club":"","Seasons":{"Participated":"1"}},
{"field1":"21","Institution":"ACE Technical Charter High School","State":"Illinois","Address":"5410 S State St Chicago IL 60609","Latitude":"41.7961589","Longitude":"-87.6263106","Club":"","Seasons":{"Participated":"1"}},
{"field1":"22","Institution":"Acton Boxborough Regional High School","State":"Massachusetts","Address":"36 Charter Rd Acton MA 01720","Latitude":"42.4796958","Longitude":"-71.4580815","Club":"","Seasons":{"Participated":"3"}},
{"field1":"23","Institution":"Adam Scott Collegiate and Vocational Institute","State":"Ontario","Address":"175 Langton St Peterborough ON K9H 6K3 Canada","Latitude":"44.327538","Longitude":"-78.3209215","Club":"","Seasons":{"Participated":"1"}},
{"field1":"24","Institution":"Adelanto High School","State":"California","Address":"15620 Joshua Rd Adelanto CA 92301","Latitude":"34.5310412","Longitude":"-117.4411655","Club":"","Seasons":{"Participated":"2"}},
{"field1":"25","Institution":"Adlai E. Stevenson High School","State":"Michigan","Address":"39701 Dodge Park Rd Sterling Heights MI 48313","Latitude":"42.5857408","Longitude":"-83.01161","Club":"","Seasons":{"Participated":"5"}},
{"field1":"26","Institution":"Adna High School","State":"Washington","Address":"PO Box 118 Adna WA 98522","Latitude":"46.6297074","Longitude":"-123.0587528","Club":"No","Seasons":{"Participated":"1"}},
{"field1":"27","Institution":"Adrian C. Wilcox High School","State":"California","Address":"3250 Monroe St Santa Clara CA 95051","Latitude":"37.3659749","Longitude":"-121.9863832","Club":"","Seasons":{"Participated":"4"}},
{"field1":"28","Institution":"Advanced Technologies Academy","State":"Nevada","Address":"2501 Vegas Dr Las Vegas NV 89106","Latitude":"36.186258","Longitude":"-115.176895","Club":"","Seasons":{"Participated":"3"}},
{"field1":"29","Institution":"Agincourt Collegiate Institute","State":"Ontario","Address":"2621 Midland Ave Toronto ON M1S 1R6 Canada","Latitude":"43.7888036","Longitude":"-79.279288","Club":"","Seasons":{"Participated":"2"}},
{"field1":"30","Institution":"Agoura High School","State":"California","Address":"28545 W Driver Ave Agoura Hills CA 91301","Latitude":"34.1509","Longitude":"-118.749332","Club":"","Seasons":{"Participated":"3"}},
{"field1":"31","Institution":"Agoura High School","State":"California","Address":"28545 W Driver Ave  Agoura Hills  CA 91301  United States","Latitude":"34.1509","Longitude":"-118.75","Club":"","Seasons":{"Participated":"3"}},
{"field1":"32","Institution":"Air Academy High School","State":"Colorado","Address":"6910 Carlton Dr U.S. Air Force Academy CO 80840","Latitude":"38.968372","Longitude":"-104.847255","Club":"","Seasons":{"Participated":"2"}},
{"field1":"33","Institution":"Airline High School","State":"Louisiana","Address":"2801 Airline Drive Airline Dr Bossier City LA 71111","Latitude":"32.5540196","Longitude":"-93.7136837","Club":"","Seasons":{"Participated":"1"}},
{"field1":"34","Institution":"Al-Madinah School","State":"New York","Address":"383 3rd Ave  Brooklyn  NY 11215  United States","Latitude":"40.6742","Longitude":"-73.9885","Club":"","Seasons":{"Participated":"1"}},
{"field1":"35","Institution":"Alabama Christian Academy","State":"Alabama","Address":"4700 Wares Ferry Rd Montgomery AL 36109","Latitude":"32.3875424","Longitude":"-86.2186461","Club":"","Seasons":{"Participated":"2"}},
{"field1":"36","Institution":"Albert Campbell Collegiate Institute","State":"Ontario","Address":"1550 Sandhurst Cir Toronto ON M1V 1S6 Canada","Latitude":"43.8092878","Longitude":"-79.2721695","Club":"","Seasons":{"Participated":"5"}},
{"field1":"37","Institution":"Albuquerque Academy","State":"New Mexico","Address":"6400 Wyoming Blvd NE Albuquerque NM 87109","Latitude":"35.1525943","Longitude":"-106.5551294","Club":"","Seasons":{"Participated":"1"}},
{"field1":"38","Institution":"Aldergrove Community Secondary School","State":"British Columbia","Address":"26850 29 Ave Aldergrove BC V4W 3C1 Canada","Latitude":"49.054594","Longitude":"-122.48081","Club":"No","Seasons":{"Participated":"3"}},
{"field1":"39","Institution":"Alexander Hamilton High School","State":"California","Address":"2955 S Robertson Blvd Los Angeles CA 90034","Latitude":"34.0340576","Longitude":"-118.3914079","Club":"","Seasons":{"Participated":"2"}},
{"field1":"40","Institution":"Alfred Almond Central School","State":"New York","Address":"6795 NY-21  Almond  NY 14804  United States","Latitude":"42.29539","Longitude":"-77.7507","Club":"No","Seasons":{"Participated":"1"}},
{"field1":"41","Institution":"Alfred Bonnabel High School","State":"Louisiana","Address":"2801 Bruin Dr  Kenner  LA 70065  United States","Latitude":"30.01152","Longitude":"-90.2272","Club":"No","Seasons":{"Participated":"1"}},
{"field1":"42","Institution":"Algoma High School","State":"Wisconsin","Address":"1715 Division St Algoma WI 54201","Latitude":"44.5969935","Longitude":"-87.4456402","Club":"","Seasons":{"Participated":"2"}},
{"field1":"43","Institution":"Algonquin Regional High School","State":"Massachusetts","Address":"79 Bartlett St  Northborough  MA 01532  United States","Latitude":"42.3262","Longitude":"-71.613","Club":"","Seasons":{"Participated":"1"}},
{"field1":"44","Institution":"Alhambra High School","State":"California","Address":"150 E St Martinez CA 94553","Latitude":"34.0929744","Longitude":"-118.1284232","Club":"No","Seasons":{"Participated":"5"}},
{"field1":"45","Institution":"Alief Elsik High School","State":"Texas","Address":"12601 High Star Dr Houston TX 77072","Latitude":"29.7094308","Longitude":"-95.6030309","Club":"No","Seasons":{"Participated":"1"}},
{"field1":"46","Institution":"Aliso Niguel High School","State":"California","Address":"28000 Wolverine Way Aliso Viejo CA 92656","Latitude":"33.5613897","Longitude":"-117.7191495","Club":"","Seasons":{"Participated":"1"}},
{"field1":"47","Institution":"All Saints Catholic High School","State":"Ontario","Address":"5115 Kanata Ave Kanata ON K2K 3K5 Canada","Latitude":"45.3223521","Longitude":"-75.9249758","Club":"","Seasons":{"Participated":"3"}},
{"field1":"48","Institution":"Allatoona High School","State":"Georgia","Address":"3300 Dallas Acworth Hwy NW  Acworth  GA 30101  United States","Latitude":"34.0355","Longitude":"-84.736","Club":"","Seasons":{"Participated":"1"}},
{"field1":"49","Institution":"Allen High School","State":"Texas","Address":"300 Rivercrest Blvd Allen TX 75002","Latitude":"33.110378","Longitude":"-96.6621058","Club":"","Seasons":{"Participated":"4"}},
{"field1":"50","Institution":"Allendale Columbia School","State":"New York","Address":"519 Allens Creek Rd  Rochester  NY 14618  United States","Latitude":"43.11773","Longitude":"-77.5383","Club":"","Seasons":{"Participated":"1"}},
{"field1":"51","Institution":"Allendale High School","State":"Michigan","Address":"10760 68th Ave Allendale MI 49401","Latitude":"42.9639522","Longitude":"-85.950441","Club":"","Seasons":{"Participated":"2"}},
{"field1":"52","Institution":"Allentown High School","State":"New Jersey","Address":"27 High St Allentown NJ 08501","Latitude":"40.1724129","Longitude":"-74.5893795","Club":"No","Seasons":{"Participated":"2"}},
{"field1":"53","Institution":"Alliance Collins Family College Ready High School","State":"California","Address":"2071 Saturn Ave Huntington Park CA 90255","Latitude":"33.9774606","Longitude":"-118.2341498","Club":"No","Seasons":{"Participated":"1"}},
{"field1":"54","Institution":"Alpena High School","State":"Arkansas","Address":"300 S Denver St Alpena AR 7261","Latitude":"36.2917469","Longitude":"-93.2950786","Club":"Yes","Seasons":{"Participated":"1"}},
{"field1":"55","Institution":"Alpha Cindy Avitia High School","State":"California","Address":"1881 Cunningham Ave  San Jose  CA 95122  United States","Latitude":"37.3327","Longitude":"-121.83","Club":"","Seasons":{"Participated":"1"}},
{"field1":"56","Institution":"Alvin High School","State":"Texas","Address":"802 S Johnson St Alvin TX 77511","Latitude":"29.4175042","Longitude":"-95.2531183","Club":"","Seasons":{"Participated":"3"}},
{"field1":"57","Institution":"Amador Valley High School","State":"California","Address":"1155 Santa Rita Rd Pleasanton CA 94566","Latitude":"37.6678369","Longitude":"-121.8746423","Club":"No","Seasons":{"Participated":"2"}},
{"field1":"58","Institution":"American Heritage School","State":"Florida","Address":"12200 W Broward Blvd Plantation FL 33325","Latitude":"26.1210875","Longitude":"-80.3108791","Club":"","Seasons":{"Participated":"1"}},
{"field1":"59","Institution":"American Indian Public High School","State":"California","Address":"3637 Magee Ave Oakland CA 94619","Latitude":"37.8000953","Longitude":"-122.2654759","Club":"","Seasons":{"Participated":"1"}},
{"field1":"60","Institution":"American School of Correspondence","State":"Illinois","Address":"2200 E 170th St  Lansing  IL 60438  United States","Latitude":"41.587","Longitude":"-87.563","Club":"","Seasons":{"Participated":"2"}},
{"field1":"61","Institution":"Ames High School","State":"Iowa","Address":"1921 Ames High Dr Ames IA 50010","Latitude":"42.0404553","Longitude":"-93.6349486","Club":"","Seasons":{"Participated":"2"}},
{"field1":"62","Institution":"Amherst Regional High School","State":"Massachusetts","Address":"21 Matoon St Amherst MA 01002","Latitude":"42.380923","Longitude":"-72.512865","Club":"","Seasons":{"Participated":"1"}},
{"field1":"63","Institution":"Amity Regional High School","State":"Connecticut","Address":"25 Newton Rd Woodbridge CT 06525","Latitude":"41.3575126","Longitude":"-73.00767","Club":"No","Seasons":{"Participated":"3"}},
{"field1":"64","Institution":"Amon Carter Riverside High School","State":"Texas","Address":"3301 Yucca Ave Fort Worth TX 76111","Latitude":"32.7815661","Longitude":"-97.2994907","Club":"","Seasons":{"Participated":"1"}},
{"field1":"65","Institution":"Amos Alonzo Stagg High School","State":"Illinois","Address":"8015 W 111th St  Palos Hills  IL 60465  United States","Latitude":"41.6879","Longitude":"-87.819","Club":"","Seasons":{"Participated":"3"}},
{"field1":"66","Institution":"Anderson High School","State":"Texas","Address":"8403 Mesa Dr Austin TX 78759","Latitude":"30.3756118","Longitude":"-97.7532919","Club":"Yes","Seasons":{"Participated":"1"}},
{"field1":"67","Institution":"Andrew P. Hill High School","State":"California","Address":"3200 Senter Rd San Jose CA 95111","Latitude":"37.2925055","Longitude":"-121.8304395","Club":"","Seasons":{"Participated":"1"}},
{"field1":"68","Institution":"Andrews Osborne Academy","State":"Ohio","Address":"38588 Mentor Ave Willoughby OH 44094","Latitude":"41.6416038","Longitude":"-81.3966434","Club":"","Seasons":{"Participated":"3"}},
{"field1":"69","Institution":"Annandale High School","State":"Virginia","Address":"4700 Medford Dr Annandale VA 22003","Latitude":"38.8219165","Longitude":"-77.2067947","Club":"","Seasons":{"Participated":"1"}},
{"field1":"70","Institution":"Annawan High School","State":"Illinois","Address":"501 W South St  Annawan  IL 61234  United States","Latitude":"41.39379","Longitude":"-89.9118","Club":"No","Seasons":{"Participated":"1"}},
{"field1":"71","Institution":"Apalachee High School","State":"Georgia","Address":"940 Haymon Morris Rd Winder GA 30680","Latitude":"33.9483616","Longitude":"-83.7857539","Club":"","Seasons":{"Participated":"1"}},
{"field1":"72","Institution":"Apex High School","State":"North Carolina","Address":"1501 Laura Duncan Rd Apex NC 27502","Latitude":"35.7451208","Longitude":"-78.8383543","Club":"Yes","Seasons":{"Participated":"2"}},
{"field1":"73","Institution":"Apollo High School","State":"Arizona","Address":"8045 N 47th Ave Glendale AZ 85302","Latitude":"33.5551201","Longitude":"-112.1586701","Club":"No","Seasons":{"Participated":"4"}},
{"field1":"74","Institution":"Apple Valley High School","State":"Minnesota","Address":"14450 Hayes Rd Apple Valley MN 55124","Latitude":"44.7426933","Longitude":"-93.2306488","Club":"","Seasons":{"Participated":"2"}},
{"field1":"75","Institution":"Appoquinimink High School","State":"Delaware","Address":"1080 Bunker Hill Rd  Middletown  DE 19709  United States","Latitude":"39.45382","Longitude":"-75.7472","Club":"","Seasons":{"Participated":"1"}},
{"field1":"76","Institution":"Aragon High School","State":"California","Address":"900 Alameda de las Pulgas San Mateo CA 94402","Latitude":"37.5507309","Longitude":"-122.3298833","Club":"","Seasons":{"Participated":"6"}},
{"field1":"77","Institution":"Arcadia High School","State":"California","Address":"180 Campus Dr Arcadia CA 91007","Latitude":"34.1303807","Longitude":"-118.0378591","Club":"","Seasons":{"Participated":"7"}},
{"field1":"78","Institution":"Archbishop Denis OConnor Catholic High School","State":"Ontario","Address":"80 Mandrake St  Ajax  ON L1S 5H4  Canada","Latitude":"43.85853","Longitude":"-79.02","Club":"","Seasons":{"Participated":"1"}},
{"field1":"79","Institution":"Archbishop Mitty High School","State":"California","Address":"5000 Mitty Way San Jose CA 95129","Latitude":"37.3151759","Longitude":"-121.993709","Club":"","Seasons":{"Participated":"1"}},
{"field1":"80","Institution":"Archbishop Riordan High School","State":"California","Address":"175 Phelan Ave San Francisco CA 94112","Latitude":"37.727857","Longitude":"-122.4533043","Club":"","Seasons":{"Participated":"5"}},
{"field1":"81","Institution":"Archbishop Shaw High School","State":"Louisiana","Address":"1000 Barataria Blvd Marrero LA 70072","Latitude":"29.89174","Longitude":"-90.1034849","Club":"","Seasons":{"Participated":"1"}},
{"field1":"82","Institution":"Archbishop Thomas J. Murphy High School","State":"Washington","Address":"12911 39th Ave SE Everett WA 98208","Latitude":"47.8807959","Longitude":"-122.178467","Club":"","Seasons":{"Participated":"3"}},
{"field1":"83","Institution":"Archer High School","State":"California","Address":"11725 Sunset Blvd  Los Angeles  CA 90049  United States","Latitude":"34.0651","Longitude":"-118.47","Club":"","Seasons":{"Participated":"1"}},
{"field1":"84","Institution":"Ardrey Kell High School","State":"North Carolina","Address":"10220 Ardrey Kell Rd Charlotte NC 28277","Latitude":"35.0298086","Longitude":"-80.8266792","Club":"Yes","Seasons":{"Participated":"5"}},
{"field1":"85","Institution":"Arizona College Preparatory","State":"Arizona","Address":"1150 W Erie St Chandler AZ 85224","Latitude":"33.3103694","Longitude":"-111.8617912","Club":"","Seasons":{"Participated":"1"}},
{"field1":"86","Institution":"Arkansas School for Mathematics Sciences and Arts","State":"Arkansas","Address":"200 Whittington Ave Hot Springs National Park AR 71901","Latitude":"34.5181075","Longitude":"-93.058034","Club":"","Seasons":{"Participated":"1"}},
{"field1":"87","Institution":"Arlington High School","State":"Texas","Address":"76015 818 W Park Row Dr Arlington TX 76013","Latitude":"32.7205566","Longitude":"-97.1169194","Club":"","Seasons":{"Participated":"3"}},
{"field1":"88","Institution":"Armstrong High School","State":"Minnesota","Address":"10635 North 36th Avenue Plymouth MN 55441","Latitude":"45.02008","Longitude":"-93.4171235","Club":"No","Seasons":{"Participated":"1"}},
{"field1":"89","Institution":"Arrowhead High School","State":"Wisconsin","Address":"700 North Ave Hartland WI 53029","Latitude":"43.1155727","Longitude":"-88.3470047","Club":"","Seasons":{"Participated":"3"}},
{"field1":"90","Institution":"Arrowhead Park High School","State":"New Mexico","Address":"3600 Arrowhead Dr  Las Cruces  NM 88011  United States","Latitude":"32.27413","Longitude":"-106.739","Club":"No","Seasons":{"Participated":"1"}},
{"field1":"91","Institution":"Arroyo Grande High School","State":"California","Address":"495 Valley Rd Arroyo Grande CA 93420","Latitude":"35.115117","Longitude":"-120.5796074","Club":"No","Seasons":{"Participated":"3"}},
{"field1":"92","Institution":"Arroyo High School","State":"California","Address":"4921 Cedar Ave El Monte CA 91732","Latitude":"34.0937229","Longitude":"-118.0211866","Club":"","Seasons":{"Participated":"6"}},
{"field1":"93","Institution":"Arroyo Valley High School","State":"California","Address":"1881 W Base Line St San Bernardino CA 92411","Latitude":"34.1176005","Longitude":"-117.3272144","Club":"","Seasons":{"Participated":"1"}},
{"field1":"94","Institution":"Artesia High School","State":"California","Address":"12108 Del Amo Blvd Lakewood CA 90715","Latitude":"33.84518","Longitude":"-118.075","Club":"","Seasons":{"Participated":"3"}},
{"field1":"95","Institution":"Arvada West High School","State":"Colorado","Address":"11595 Allendale Dr Arvada CO 80004","Latitude":"39.8104936","Longitude":"-105.1274066","Club":"","Seasons":{"Participated":"2"}},
{"field1":"96","Institution":"Asheville High School","State":"North Carolina","Address":"419 McDowell St Asheville NC 28803","Latitude":"35.5723569","Longitude":"-82.5519419","Club":"","Seasons":{"Participated":"3"}},
{"field1":"97","Institution":"Aspen Valley High School","State":"Colorado","Address":"1450 Chapel Hills Dr Colorado Springs CO 80920","Latitude":"38.951341","Longitude":"-104.7910148","Club":"","Seasons":{"Participated":"1"}},
{"field1":"98","Institution":"Assumption Catholic Secondary School","State":"Ontario","Address":"3230 Woodward Ave Burlington ON L7N 3P1 Canada","Latitude":"43.3482326","Longitude":"-79.7834819","Club":"","Seasons":{"Participated":"1"}},
{"field1":"99","Institution":"Assumption College Catholic High School","State":"Ontario","Address":"1100 Huron Church Rd Windsor ON N9C 2K7 Canada","Latitude":"42.295426","Longitude":"-83.060931","Club":"","Seasons":{"Participated":"1"}},
{"field1":"100","Institution":"Astronaut High School","State":"Florida","Address":"800 War Eagle Blvd  Titusville  FL 32796  United States","Latitude":"28.62514","Longitude":"-80.8508","Club":"","Seasons":{"Participated":"1"}},
{"field1":"101","Institution":"Athens Academy","State":"Georgia","Address":"1281 Spartan Ln Athens GA 30606","Latitude":"33.9005562","Longitude":"-83.4016293","Club":"","Seasons":{"Participated":"2"}},
{"field1":"102","Institution":"Athens Drive Magnet High School Center For Medical Sciences and Global Health Initiatives","State":"North Carolina","Address":"1420 Athens Dr Raleigh NC 27606","Latitude":"35.7686049","Longitude":"-78.7111454","Club":"","Seasons":{"Participated":"2"}},
{"field1":"103","Institution":"Athens High School","State":"Alabama","Address":"100 US-31  Athens  AL 35611  United States","Latitude":"34.80335","Longitude":"-86.9498","Club":"Yes","Seasons":{"Participated":"1"}},
{"field1":"104","Institution":"Atholton High School","State":"Maryland","Address":"6520 Freetown Rd  Columbia  MD 21044  United States","Latitude":"39.1882","Longitude":"-76.88","Club":"","Seasons":{"Participated":"2"}},
{"field1":"105","Institution":"Atkins Academic Technology High School","State":"North Carolina","Address":"3605 Old Greensboro Rd  Winston-Salem  NC 27101  United States","Latitude":"36.1106","Longitude":"-80.196","Club":"","Seasons":{"Participated":"1"}},
{"field1":"106","Institution":"Atlantic Coast High School","State":"Florida","Address":"9735 R G Skinner Pkwy  Jacksonville  FL 32256  United States","Latitude":"30.2023","Longitude":"-81.502","Club":"","Seasons":{"Participated":"2"}},
{"field1":"107","Institution":"Auburn High School","State":"Washington","Address":"711 E Main St Auburn WA 98002","Latitude":"47.3086076","Longitude":"-122.2198371","Club":"","Seasons":{"Participated":"3"}},
{"field1":"108","Institution":"Auburn High School","State":"Alabama","Address":"405 S Dean Rd  Auburn  AL 36830  United States","Latitude":"32.59717","Longitude":"-85.4631","Club":"","Seasons":{"Participated":"2"}},
{"field1":"109","Institution":"Auburn Mountainview High School","State":"Washington","Address":"28900 124th Ave SE  Auburn  WA 98092  United States","Latitude":"47.342","Longitude":"-122.17","Club":"","Seasons":{"Participated":"1"}},
{"field1":"110","Institution":"Auburn Riverside High School","State":"Washington","Address":"501 Oravetz Rd SE Auburn WA 98092","Latitude":"47.2678489","Longitude":"-122.2227891","Club":"","Seasons":{"Participated":"1"}},
{"field1":"111","Institution":"Austin Catholic High School","State":"Michigan","Address":"25925 23 Mile Road  Chesterfield  MI 48051  United States","Latitude":"42.7191","Longitude":"-82.868","Club":"","Seasons":{"Participated":"1"}},
{"field1":"112","Institution":"Austin High School","State":"Texas","Address":"1715 W Cesar Chavez St Austin TX 78703","Latitude":"30.2738179","Longitude":"-97.7672984","Club":"","Seasons":{"Participated":"2"}},
{"field1":"113","Institution":"Avon Grove High School","State":"Pennsylvania","Address":"257 State Rd West Grove PA 19390","Latitude":"39.8160452","Longitude":"-75.8161858","Club":"","Seasons":{"Participated":"3"}},
{"field1":"114","Institution":"Avon High School","State":"Connecticut","Address":"510 W Avon Rd Avon CT 06001","Latitude":"41.7834322","Longitude":"-72.8620444","Club":"","Seasons":{"Participated":"1"}},
{"field1":"115","Institution":"Avon Park High School","State":"Florida","Address":"700 E Main St Avon Park FL 33825","Latitude":"27.5942677","Longitude":"-81.4878234","Club":"","Seasons":{"Participated":"1"}},
{"field1":"116","Institution":"Ayala High School","State":"California","Address":"14255 Peyton Dr  Chino Hills  CA 91709  United States","Latitude":"33.9946","Longitude":"-117.73","Club":"","Seasons":{"Participated":"1"}},
{"field1":"117","Institution":"Bainbridge High School","State":"Washington","Address":"9330 High School Rd NE Bainbridge Island WA 98110","Latitude":"47.6362522","Longitude":"-122.5253882","Club":"","Seasons":{"Participated":"2"}},
{"field1":"118","Institution":"Bakersfield High School","State":"California","Address":"1241 G St  Bakersfield  CA 93301  United States","Latitude":"35.36928","Longitude":"-119.023","Club":"Yes","Seasons":{"Participated":"1"}},
{"field1":"119","Institution":"Balboa High School","State":"California","Address":"1000 Cayuga Ave San Francisco CA 94112","Latitude":"37.7215763","Longitude":"-122.440583","Club":"No","Seasons":{"Participated":"4"}},
{"field1":"120","Institution":"Baldwin Senior High School","State":"New York","Address":"841 Ethel T Kloberg Drive Baldwin NY 11510","Latitude":"40.6666479","Longitude":"-73.6059047","Club":"No","Seasons":{"Participated":"1"}},
{"field1":"121","Institution":"Ballard High School","State":"Washington","Address":"1418 NW 65th St  Seattle  WA 98117  United States","Latitude":"47.6769","Longitude":"-122.37","Club":"","Seasons":{"Participated":"1"}},
{"field1":"122","Institution":"Bangor High School","State":"Ontario","Address":"885 Broadway  Bangor  ME 04401  United States","Latitude":"44.8313","Longitude":"-68.782","Club":"","Seasons":{"Participated":"1"}},
{"field1":"123","Institution":"Barack Obama Male Leadership Academy","State":"Texas","Address":"4730 S Lancaster Rd  Dallas  TX 75216  United States","Latitude":"32.6915","Longitude":"-96.791","Club":"","Seasons":{"Participated":"2"}},
{"field1":"124","Institution":"Bard High School Early College Cleveland","State":"Ohio","Address":"13501 Terminal Ave Cleveland OH 44135","Latitude":"41.4388241","Longitude":"-81.7844698","Club":"","Seasons":{"Participated":"1"}},
{"field1":"125","Institution":"Bard High School Early College Manhattan","State":"New York","Address":"525 E Houston St  New York  NY 10002  United States","Latitude":"40.7183","Longitude":"-73.976","Club":"","Seasons":{"Participated":"1"}},
{"field1":"126","Institution":"Barnegat High School","State":"New Jersey","Address":"180 Bengal Blvd Barnegat NJ 08005","Latitude":"39.7730818","Longitude":"-74.2346153","Club":"","Seasons":{"Participated":"2"}},
{"field1":"127","Institution":"Barnstable High School","State":"Massachusetts","Address":"744 W Main St  Hyannis  MA 02601  United States","Latitude":"41.6549","Longitude":"-70.321","Club":"","Seasons":{"Participated":"1"}},
{"field1":"128","Institution":"Barrington High School","State":"Illinois","Address":"616 W Main St Barrington IL 60010","Latitude":"42.1561033","Longitude":"-88.1475878","Club":"","Seasons":{"Participated":"3"}},
{"field1":"129","Institution":"Barstow School","State":"Missouri","Address":"11511 State Line Rd  Kansas City  MO 64114  United States","Latitude":"38.91811","Longitude":"-94.6052","Club":"","Seasons":{"Participated":"1"}},
{"field1":"130","Institution":"Bartlett High School","State":"Illinois","Address":"701 W Schick Rd Bartlett IL 60103","Latitude":"41.9502432","Longitude":"-88.1921727","Club":"","Seasons":{"Participated":"3"}},
{"field1":"131","Institution":"Bartow High School","State":"Florida","Address":"1270 S Broadway Ave  Bartow  FL 33830  United States","Latitude":"27.88376","Longitude":"-81.8425","Club":"Yes","Seasons":{"Participated":"1"}},
{"field1":"132","Institution":"BASIS Independent Silicon Valley","State":"California","Address":"1290 Parkmoor Ave  San Jose  CA 95126  United States","Latitude":"37.3161","Longitude":"-121.91","Club":"","Seasons":{"Participated":"1"}},
{"field1":"133","Institution":"BASIS Scottsdale","State":"Arizona","Address":"11440 N 136th St Scottsdale AZ 85259","Latitude":"33.5902712","Longitude":"-111.788028","Club":"","Seasons":{"Participated":"3"}},
{"field1":"134","Institution":"Battlefield High School","State":"Virginia","Address":"15000 Graduation Dr  Haymarket  VA 20169  United States","Latitude":"38.8453","Longitude":"-77.63","Club":"","Seasons":{"Participated":"2"}},
{"field1":"135","Institution":"Bay Shore High School","State":"New York","Address":"155 Third Ave  Bay Shore  NY 11706  United States","Latitude":"40.7316","Longitude":"-73.254","Club":"","Seasons":{"Participated":"1"}},
{"field1":"136","Institution":"Beacon High School","State":"New York","Address":"522 W 44th St  New York  NY 10036  United States","Latitude":"40.7612","Longitude":"-73.996","Club":"","Seasons":{"Participated":"1"}},
{"field1":"137","Institution":"Beaumont High School","State":"California","Address":"39139 Cherry Valley Blvd Beaumont CA 92223","Latitude":"33.9643271","Longitude":"-116.980039","Club":"","Seasons":{"Participated":"1"}},
{"field1":"138","Institution":"Beaver Area High School","State":"Pennsylvania","Address":"Gypsy Glen Road Beaver PA 15009","Latitude":"40.6963356","Longitude":"-80.3192216","Club":"No","Seasons":{"Participated":"1"}},
{"field1":"139","Institution":"Beaver Dam High School","State":"Wisconsin","Address":"500 Gould St Beaver Dam WI 53916","Latitude":"43.4617224","Longitude":"-88.8200737","Club":"","Seasons":{"Participated":"2"}},
{"field1":"140","Institution":"Beaverton High School","State":"Oregon","Address":"13000 SW 2nd St  Beaverton  OR 97005  United States","Latitude":"45.4862","Longitude":"-122.81","Club":"","Seasons":{"Participated":"1"}},
{"field1":"141","Institution":"Beckman High School","State":"California","Address":"3588 Bryan Ave  Irvine  CA 92602  United States","Latitude":"33.7176","Longitude":"-117.78","Club":"","Seasons":{"Participated":"2"}},
{"field1":"142","Institution":"Bedford High School","State":"New Hampshire","Address":"47 Nashua Rd Bedford NH 03110","Latitude":"42.9372877","Longitude":"-71.5196356","Club":"","Seasons":{"Participated":"1"}},
{"field1":"143","Institution":"Belen Jesuit Preparatory School","State":"Florida","Address":"500 SW 127th Ave Miami FL 33184","Latitude":"25.7646192","Longitude":"-80.4017214","Club":"","Seasons":{"Participated":"1"}},
{"field1":"144","Institution":"Bell High School","State":"California","Address":"4328 Bell Ave Bell CA 90201","Latitude":"33.9725667","Longitude":"-118.1903461","Club":"No","Seasons":{"Participated":"3"}},
{"field1":"145","Institution":"Bellarmine College Preparatory","State":"California","Address":"960 W Hedding St San Jose CA 95126","Latitude":"37.342483","Longitude":"-121.917904","Club":"","Seasons":{"Participated":"1"}},
{"field1":"146","Institution":"Bellarmine Preparatory School","State":"Washington","Address":"2300 S Washington St Tacoma WA 98405","Latitude":"47.2385283","Longitude":"-122.4853676","Club":"","Seasons":{"Participated":"1"}},
{"field1":"147","Institution":"Bellbrook High School","State":"Ohio","Address":"3737 Upper Bellbrook Rd Bellbrook OH 45305","Latitude":"39.6527907","Longitude":"-84.0677588","Club":"Yes","Seasons":{"Participated":"2"}},
{"field1":"148","Institution":"Belleville East High School","State":"Illinois","Address":"2555 West Blvd Belleville IL 62221","Latitude":"38.5197883","Longitude":"-89.9501757","Club":"","Seasons":{"Participated":"1"}},
{"field1":"149","Institution":"Bellevue High School","State":"Washington","Address":"10416 SE Wolverine Way Bellevue WA 98004","Latitude":"47.604238","Longitude":"-122.198449","Club":"","Seasons":{"Participated":"1"}},
{"field1":"150","Institution":"Bellevue International School","State":"Washington","Address":"445 128th Ave SE Bellevue WA 98005","Latitude":"47.6040367","Longitude":"-122.1710154","Club":"","Seasons":{"Participated":"1"}},
{"field1":"151","Institution":"Bellows Free Academy Fairfax","State":"Vermont","Address":"75 Hunt St Fairfax VT 05454","Latitude":"44.663585","Longitude":"-73.0129295","Club":"","Seasons":{"Participated":"1"}},
{"field1":"152","Institution":"Belmont High School","State":"Massachusetts","Address":"221 Concord Ave  Belmont  MA 02478  United States","Latitude":"42.3952","Longitude":"-71.165","Club":"","Seasons":{"Participated":"1"}},
{"field1":"153","Institution":"Belton New Tech High School","State":"Texas","Address":"320 N Blair St Belton TX 76513","Latitude":"31.0580488","Longitude":"-97.4577133","Club":"Yes","Seasons":{"Participated":"1"}},
{"field1":"154","Institution":"Bemidji High School","State":"Minnesota","Address":"2900 Division St W Bemidji MN 56601","Latitude":"47.4659758","Longitude":"-94.9236316","Club":"","Seasons":{"Participated":"1"}},
{"field1":"155","Institution":"Benedictine High School","State":"Ohio","Address":"2900 Martin Luther King Jr Dr  Cleveland  OH 44104  United States","Latitude":"41.4803","Longitude":"-81.61","Club":"","Seasons":{"Participated":"1"}},
{"field1":"156","Institution":"Benet Academy","State":"Illinois","Address":"2200 Maple Ave Lisle IL 60532","Latitude":"41.7847625","Longitude":"-88.094568","Club":"","Seasons":{"Participated":"1"}},
{"field1":"157","Institution":"Benicia High School","State":"California","Address":"1101 Military W Benicia CA 94510","Latitude":"38.0648321","Longitude":"-122.1756587","Club":"No","Seasons":{"Participated":"1"}},
{"field1":"158","Institution":"Benilde-St. Margarets School","State":"Minnesota","Address":"2501 Highway 100 South St Louis Park MN 55416","Latitude":"44.9581669","Longitude":"-93.3447888","Club":"Yes","Seasons":{"Participated":"4"}},
{"field1":"159","Institution":"Benito Juarez Community Academy","State":"Illinois","Address":"1450 W Cermak Rd Chicago IL 60608","Latitude":"41.8530688","Longitude":"-87.6637285","Club":"","Seasons":{"Participated":"1"}},
{"field1":"160","Institution":"Benjamin N. Cardozo High School","State":"New York","Address":"5700 223rd St Bayside NY 11364","Latitude":"40.7518777","Longitude":"-73.7565743","Club":"","Seasons":{"Participated":"3"}},
{"field1":"161","Institution":"Benjamin School","State":"Florida","Address":"11000 Ellison Wilson Rd  North Palm Beach  FL 33408  United States","Latitude":"26.8382","Longitude":"-80.063","Club":"","Seasons":{"Participated":"1"}},
{"field1":"162","Institution":"Benowa State High School","State":"Australia","Address":"Mediterranean Dr  Benowa QLD 4217  Australia","Latitude":"-28.005","Longitude":"153.389","Club":"","Seasons":{"Participated":"2"}},
{"field1":"163","Institution":"Benson High School","State":"Oregon","Address":"546 NE 12th Ave Portland OR 97232","Latitude":"45.527282","Longitude":"-122.652747","Club":"","Seasons":{"Participated":"1"}},
{"field1":"164","Institution":"Bentonville High School","State":"Arkansas","Address":"1901 SE J St  Bentonville  AR 72712  United States","Latitude":"36.3512","Longitude":"-94.196","Club":"","Seasons":{"Participated":"1"}},
{"field1":"165","Institution":"Bergen County Technical School Teterboro","State":"New Jersey","Address":"504 US-46  Teterboro  NJ 07608  United States","Latitude":"40.86051","Longitude":"-74.0546","Club":"No","Seasons":{"Participated":"1"}},
{"field1":"166","Institution":"Bergen County Technical Schools","State":"New Jersey","Address":"200 Hackensack Ave Hackensack NJ 07601","Latitude":"40.9025128","Longitude":"-74.0339469","Club":"No","Seasons":{"Participated":"3"}},
{"field1":"167","Institution":"Bergenfield High School","State":"New Jersey","Address":"80 S Prospect Ave  Bergenfield  NJ 07621  United States","Latitude":"40.925","Longitude":"-74.007","Club":"","Seasons":{"Participated":"2"}},
{"field1":"168","Institution":"Berlin Brothersvalley High School","State":"Pennsylvania","Address":"1025 Main St Berlin PA 15530","Latitude":"39.9211511","Longitude":"-78.9474551","Club":"No","Seasons":{"Participated":"4"}},
{"field1":"169","Institution":"Bert Fox Community High School","State":"Saskatchewan","Address":"321 4 St Fort Qu'Appelle SK S0G 1S0 Canada","Latitude":"50.7673866","Longitude":"-103.7909451","Club":"","Seasons":{"Participated":"1"}},
{"field1":"170","Institution":"Bethel High School","State":"Virginia","Address":"1067 Big Bethel Rd Hampton VA 23666","Latitude":"37.0530549","Longitude":"-76.4310003","Club":"Yes","Seasons":{"Participated":"1"}},
{"field1":"171","Institution":"Bethesda-Chevy Chase High School","State":"Maryland","Address":"4301 East-West Hwy Bethesda MD 20814","Latitude":"38.9864928","Longitude":"-77.0885041","Club":"","Seasons":{"Participated":"3"}},
{"field1":"172","Institution":"Bethpage High School","State":"New York","Address":"10 Cherry Ave Bethpage NY 11714","Latitude":"40.7548408","Longitude":"-73.4830817","Club":"","Seasons":{"Participated":"2"}},
{"field1":"173","Institution":"Bettendorf High School","State":"Iowa","Address":"3333 18th St Bettendorf IA 52722","Latitude":"41.5571414","Longitude":"-90.4971189","Club":"","Seasons":{"Participated":"1"}},
{"field1":"174","Institution":"Bexley High School","State":"Ohio","Address":"326 S Cassingham Rd  Columbus  OH 43209  United States","Latitude":"39.9637","Longitude":"-82.93","Club":"","Seasons":{"Participated":"2"}},
{"field1":"175","Institution":"Bildningscentrum Jan Fridegard","State":"Sweden","Address":"Centrumleden 5  746 32 Balsta  Sweden","Latitude":"59.56875","Longitude":"17.52902","Club":"","Seasons":{"Participated":"1"}},
{"field1":"176","Institution":"Bill Crothers Secondary School","State":"Ontario","Address":"44 Main St Unionville Markham ON L3R 2E4 Canada","Latitude":"43.8564904","Longitude":"-79.3122312","Club":"","Seasons":{"Participated":"1"}},
{"field1":"177","Institution":"Billings West High School","State":"Montana","Address":"2201 St Johns Ave  Billings  MT 59102  United States","Latitude":"45.7728","Longitude":"-108.57","Club":"","Seasons":{"Participated":"1"}},
{"field1":"178","Institution":"Bingham High School","State":"Michigan","Address":"23400 W 13 Mile Rd  Bingham Farms  MI 48025  United States","Latitude":"42.5167","Longitude":"-83.275","Club":"","Seasons":{"Participated":"1"}},
{"field1":"179","Institution":"Biotechnology High School","State":"New Jersey","Address":"5000 Kozloski Rd Freehold NJ 07728","Latitude":"40.2612033","Longitude":"-74.2509429","Club":"Yes","Seasons":{"Participated":"2"}},
{"field1":"180","Institution":"Bishop Blanchet High School","State":"Washington","Address":"8200 Wallingford Ave N Seattle WA 98103","Latitude":"47.689563","Longitude":"-122.334685","Club":"","Seasons":{"Participated":"1"}},
{"field1":"181","Institution":"Bishop Kelley High School","State":"Oklahoma","Address":"3905 S Hudson Ave  Tulsa  OK 74135  United States","Latitude":"36.10733","Longitude":"-95.9102","Club":"","Seasons":{"Participated":"1"}},
{"field1":"182","Institution":"Bishop Kelly High School","State":"Indiana","Address":"7009 Franklin Rd Boise ID 83709","Latitude":"43.601512","Longitude":"-116.269619","Club":"","Seasons":{"Participated":"1"}},
{"field1":"183","Institution":"Bishop Lynch High School","State":"Texas","Address":"9750 Ferguson Rd Dallas TX 75228","Latitude":"32.818486","Longitude":"-96.681764","Club":"","Seasons":{"Participated":"1"}},
{"field1":"184","Institution":"Bishop Macdonell Catholic Secondary School","State":"Ontario","Address":"200 Clair Rd W Guelph ON Canada","Latitude":"43.4944737","Longitude":"-80.1953673","Club":"","Seasons":{"Participated":"1"}},
{"field1":"185","Institution":"Bishop McDevitt High School","State":"Pennsylvania","Address":"1 Crusader Way Harrisburg PA 17111","Latitude":"40.2749723","Longitude":"-76.7915799","Club":"No","Seasons":{"Participated":"2"}},
{"field1":"186","Institution":"Bishop McNally High School","State":"Alberta","Address":"5700 Falconridge Blvd NE  Calgary  AB T3J 3N4  Canada","Latitude":"51.103","Longitude":"-113.96","Club":"No","Seasons":{"Participated":"2"}},
{"field1":"187","Institution":"Bishop Miege High School","State":"Kansas","Address":"5041 Reinhardt Dr Roeland Park KS 66205","Latitude":"39.0355609","Longitude":"-94.6246793","Club":"","Seasons":{"Participated":"1"}},
{"field1":"188","Institution":"Bishop OByrne Senior High School","State":"Alberta","Address":"333 Shawville Blvd SE #500 Calgary AB Canada","Latitude":"50.8979784","Longitude":"-114.0657341","Club":"No","Seasons":{"Participated":"2"}},
{"field1":"189","Institution":"Bishop ODowd High School","State":"California","Address":"9500 Stearns Ave Oakland CA 94605","Latitude":"37.753313","Longitude":"-122.154763","Club":"","Seasons":{"Participated":"1"}},
{"field1":"190","Institution":"Bishop Shanahan High School","State":"Pennsylvania","Address":"220 Woodbine Rd Downingtown PA 19335","Latitude":"40.0081082","Longitude":"-75.6866813","Club":"No","Seasons":{"Participated":"1"}},
{"field1":"191","Institution":"Bjornholt Videregaende Skole","State":"Norway","Address":"Slimeveien 15-17  1275 Oslo  Norway","Latitude":"59.8342","Longitude":"10.8353","Club":"","Seasons":{"Participated":"2"}},
{"field1":"192","Institution":"Blaine High School","State":"Minnesota","Address":"12555 University Ave NE Blaine MN 55434","Latitude":"45.199236","Longitude":"-93.263489","Club":"","Seasons":{"Participated":"1"}},
{"field1":"193","Institution":"Bloomfield Hills High School","State":"Michigan","Address":"3456 Lahser Rd  Bloomfield Hills  MI 48302  United States","Latitude":"42.591","Longitude":"-83.267","Club":"","Seasons":{"Participated":"2"}},
{"field1":"194","Institution":"Bloomington High School South","State":"Indiana","Address":"1965 S Walnut St  Bloomington  IN 47401  United States","Latitude":"39.14306","Longitude":"-86.529","Club":"Yes","Seasons":{"Participated":"1"}},
{"field1":"195","Institution":"Blue Springs High School","State":"Missouri","Address":"2000 NW Ashton Dr Blue Springs MO 64015","Latitude":"39.0266766","Longitude":"-94.288364","Club":"","Seasons":{"Participated":"3"}},
{"field1":"196","Institution":"Blue Valley High School","State":"Kansas","Address":"6001 W 159th St  Stilwell  KS 66085  United States","Latitude":"38.839","Longitude":"-94.656","Club":"","Seasons":{"Participated":"1"}},
{"field1":"197","Institution":"Bluevale Collegiate Institute","State":"Ontario","Address":"80 Bluevale St N Waterloo ON N2J 3R5 Canada","Latitude":"43.475564","Longitude":"-80.500581","Club":"","Seasons":{"Participated":"1"}},
{"field1":"198","Institution":"Bob Jones High School","State":"Alabama","Address":"650 Hughes Rd  Madison  AL 35758  United States","Latitude":"34.71913","Longitude":"-86.7422","Club":"No","Seasons":{"Participated":"1"}},
{"field1":"199","Institution":"Boerne Samuel V. Champion High School","State":"Texas","Address":"201 Charger Blvd Boerne TX 78006","Latitude":"29.7859546","Longitude":"-98.7057677","Club":"","Seasons":{"Participated":"1"}},
{"field1":"200","Institution":"Bogota High School","State":"New Jersey","Address":"2 Henry C Luthin Pl Bogota NJ 07603","Latitude":"40.8776737","Longitude":"-74.0232717","Club":"","Seasons":{"Participated":"2"}},
{"field1":"201","Institution":"Bolivar High School","State":"Missouri","Address":"1401 N Hwy D Bolivar MO 65613","Latitude":"37.6256085","Longitude":"-93.3960284","Club":"No","Seasons":{"Participated":"2"}},
{"field1":"202","Institution":"Bolsa Grande High School","State":"California","Address":"9401 Westminster Ave Garden Grove CA 92844","Latitude":"33.7609638","Longitude":"-117.9644029","Club":"","Seasons":{"Participated":"3"}},
{"field1":"203","Institution":"Bonita Vista High School","State":"California","Address":"751 Otay Lakes Rd Chula Vista CA 91913","Latitude":"32.6471172","Longitude":"-116.9992226","Club":"No","Seasons":{"Participated":"5"}},
{"field1":"204","Institution":"Bonney Lake High School","State":"Washington","Address":"10920 199th Ave Ct E Bonney Lake WA 98391","Latitude":"47.157997","Longitude":"-122.1673243","Club":"No","Seasons":{"Participated":"1"}},
{"field1":"205","Institution":"Booker T. Washington High School","State":"Oklahoma","Address":"1514 E Zion St Tulsa OK 74106","Latitude":"36.1881982","Longitude":"-95.9704876","Club":"","Seasons":{"Participated":"1"}},
{"field1":"206","Institution":"Boston College High School","State":"Massachusetts","Address":"150 William T Morrissey Blvd Boston MA 02125","Latitude":"42.3161225","Longitude":"-71.0445767","Club":"","Seasons":{"Participated":"3"}},
{"field1":"207","Institution":"Boston Latin School","State":"Massachusetts","Address":"78 Avenue Louis Pasteur Boston MA 02115","Latitude":"42.337825","Longitude":"-71.101216","Club":"Yes","Seasons":{"Participated":"6"}},
{"field1":"208","Institution":"Bowie High School","State":"Texas","Address":"341 US-287 Bowie TX 76230","Latitude":"33.5474235","Longitude":"-97.8506428","Club":"No","Seasons":{"Participated":"3"}},
{"field1":"209","Institution":"Boyd Anderson High School","State":"Florida","Address":"3050 NW 41st St  Lauderdale Lakes  FL 33309  United States","Latitude":"26.17795","Longitude":"-80.1857","Club":"","Seasons":{"Participated":"1"}},
{"field1":"210","Institution":"Boyertown High School","State":"Pennsylvania","Address":"120 N Monroe St Boyertown PA 19512","Latitude":"40.3319584","Longitude":"-75.6283757","Club":"","Seasons":{"Participated":"1"}},
{"field1":"211","Institution":"Boylan Catholic High School","State":"Illinois","Address":"4000 St Francis Dr Rockford IL 61103","Latitude":"42.3200686","Longitude":"-89.0836019","Club":"","Seasons":{"Participated":"2"}},
{"field1":"212","Institution":"Bradshaw Christian High School","State":"California","Address":"8324 Bradshaw Rd Sacramento CA 95829","Latitude":"38.455611","Longitude":"-121.335241","Club":"No","Seasons":{"Participated":"3"}},
{"field1":"213","Institution":"Braintree High School","State":"Massachusetts","Address":"128 Town St Braintree MA 02184","Latitude":"42.2040201","Longitude":"-71.0198736","Club":"","Seasons":{"Participated":"1"}},
{"field1":"214","Institution":"Brandon High School","State":"Florida","Address":"1101 Victoria St Brandon FL 33510","Latitude":"27.9436422","Longitude":"-82.2996909","Club":"","Seasons":{"Participated":"1"}},
{"field1":"215","Institution":"Brandon Valley High School","State":"South Dakota","Address":"301 S Splitrock Blvd Brandon SD 57005","Latitude":"43.592332","Longitude":"-96.5739706","Club":"","Seasons":{"Participated":"2"}},
{"field1":"216","Institution":"Branham High School","State":"California","Address":"1570 Branham Ln San Jose CA 95118","Latitude":"37.254179","Longitude":"-121.899769","Club":"","Seasons":{"Participated":"4"}},
{"field1":"217","Institution":"Brea Olinda High School","State":"California","Address":"789 Wildcat Way Brea CA 92821","Latitude":"33.9328298","Longitude":"-117.8754915","Club":"","Seasons":{"Participated":"3"}},
{"field1":"218","Institution":"Brebeuf College School","State":"Ontario","Address":"211 Steeles Ave E North York ON M2M 3Y6 Canada","Latitude":"43.7999622","Longitude":"-79.4018084","Club":"","Seasons":{"Participated":"1"}},
{"field1":"219","Institution":"Brentwood School","State":"California","Address":"12001 Sunset Blvd Los Angeles CA 90049","Latitude":"34.067168","Longitude":"-118.468795","Club":"","Seasons":{"Participated":"1"}},
{"field1":"220","Institution":"Briar Woods High School","State":"Virginia","Address":"22525 Belmont Ridge Rd  Ashburn  VA 20148  United States","Latitude":"38.9925","Longitude":"-77.531","Club":"","Seasons":{"Participated":"1"}},
{"field1":"221","Institution":"Bridgewater Junior Senior High School","State":"Nova Scotia","Address":"100 York St Bridgewater NS B4V 1R3 Canada","Latitude":"44.37683","Longitude":"-64.522651","Club":"No","Seasons":{"Participated":"2"}},
{"field1":"222","Institution":"Bridgewater-Raritan High School","State":"New Jersey","Address":"600 Garretson Rd Bridgewater NJ 08807","Latitude":"40.5929962","Longitude":"-74.6345149","Club":"","Seasons":{"Participated":"2"}},
{"field1":"223","Institution":"Brigham Young University Independent Study","State":"Colorado","Address":"Brigham Young University Provo UT 84602","Latitude":"40.253654","Longitude":"-111.644672","Club":"","Seasons":{"Participated":"1"}},
{"field1":"224","Institution":"Brighton High School","State":"Utah","Address":"2220 Bengal Blvd Cottonwood Heights UT 84121","Latitude":"40.6121606","Longitude":"-111.8262184","Club":"Yes","Seasons":{"Participated":"4"}},
{"field1":"225","Institution":"Brisbane Boys College","State":"Australia","Address":"Kensington Terrace  Toowong QLD 4066  Australia","Latitude":"-27.4878","Longitude":"152.9879","Club":"","Seasons":{"Participated":"1"}},
{"field1":"226","Institution":"British International School of Houston","State":"Texas","Address":"4211 Watonga Blvd Houston TX 77092","Latitude":"29.8292459","Longitude":"-95.4595104","Club":"","Seasons":{"Participated":"1"}},
{"field1":"227","Institution":"Brockton High School","State":"Massachusetts","Address":"470 Forest Ave  Brockton  MA 02301  United States","Latitude":"42.0673","Longitude":"-71.044","Club":"","Seasons":{"Participated":"1"}},
{"field1":"228","Institution":"Bromfield School","State":"Massachusetts","Address":"14 Massachusetts Ave Harvard MA 01451","Latitude":"42.4986294","Longitude":"-71.5854692","Club":"","Seasons":{"Participated":"1"}},
{"field1":"229","Institution":"Bronx Academy for Software Engineering","State":"New York","Address":"2474 Crotona Avenue Bronx NY 10458","Latitude":"40.855217","Longitude":"-73.8826068","Club":"","Seasons":{"Participated":"2"}},
{"field1":"230","Institution":"Bronx Compass High School","State":"New York","Address":"1980 Lafayette Ave  Bronx  NY 10473","Latitude":"40.82145","Longitude":"-73.8557","Club":"","Seasons":{"Participated":"1"}},
{"field1":"231","Institution":"Bronx High School of Science","State":"New York","Address":"75 W 205th St Bronx NY 10468","Latitude":"40.8782892","Longitude":"-73.8908618","Club":"Yes","Seasons":{"Participated":"5"}},
{"field1":"232","Institution":"Brookfield Central High School","State":"Wisconsin","Address":"16900 Gebhardt Rd Brookfield WI 53005","Latitude":"43.057193","Longitude":"-88.122478","Club":"","Seasons":{"Participated":"2"}},
{"field1":"233","Institution":"Brookfield High School","State":"Connecticut","Address":"45 Long Meadow Hill Rd Brookfield CT 06804","Latitude":"41.4809491","Longitude":"-73.3906245","Club":"","Seasons":{"Participated":"1"}},
{"field1":"234","Institution":"Brooklyn Center High School","State":"Minnesota","Address":"6500 Humboldt Ave N Minneapolis MN 55430","Latitude":"45.0738661","Longitude":"-93.2976911","Club":"","Seasons":{"Participated":"3"}},
{"field1":"235","Institution":"Brooklyn School for Math and Research","State":"New York","Address":"400 Irving Ave Brooklyn NY 11237","Latitude":"40.6968532","Longitude":"-73.9116789","Club":"No","Seasons":{"Participated":"1"}},
{"field1":"236","Institution":"Brooklyn Technical High School","State":"New York","Address":"29 Fort Greene Pl Brooklyn NY 11217","Latitude":"40.6895732","Longitude":"-73.9762527","Club":"Yes","Seasons":{"Participated":"3"}},
{"field1":"237","Institution":"Brookswood High School","State":"Alabama","Address":"12250 George Richmond Parkway  Brookwood  AL 35444","Latitude":"33.25567","Longitude":"-87.3208","Club":"","Seasons":{"Participated":"1"}},
{"field1":"238","Institution":"Brookwood High School","State":"Georgia","Address":"1255 Dogwood Road Snellville GA 30078","Latitude":"33.8836053","Longitude":"-84.040035","Club":"Yes","Seasons":{"Participated":"3"}},
{"field1":"239","Institution":"Brophy College Preparatory","State":"Arizona","Address":"4701 N Central Ave Phoenix AZ 85012","Latitude":"33.5050652","Longitude":"-112.0724183","Club":"","Seasons":{"Participated":"4"}},
{"field1":"240","Institution":"Brother Martin High School","State":"Louisiana","Address":"4401 Elysian Fields Ave  New Orleans  LA 70122  United States","Latitude":"30.0033","Longitude":"-90.058","Club":"No","Seasons":{"Participated":"2"}},
{"field1":"241","Institution":"Brown County High School","State":"Indiana","Address":"235 School House Ln Nashville IN 47448","Latitude":"39.2042154","Longitude":"-86.2438789","Club":"","Seasons":{"Participated":"2"}},
{"field1":"242","Institution":"Buchanan High School","State":"California","Address":"1560 N Minnewawa Ave Clovis CA 93619","Latitude":"36.8580669","Longitude":"-119.7143696","Club":"","Seasons":{"Participated":"1"}},
{"field1":"243","Institution":"Buchholz High School","State":"Florida","Address":"5510 NW 27th Ave  Gainesville  FL 32606  United States","Latitude":"29.6786","Longitude":"-82.402","Club":"","Seasons":{"Participated":"1"}},
{"field1":"244","Institution":"Buckeye Union High School","State":"Arizona","Address":"1000 E Narramore Ave Buckeye AZ 85326","Latitude":"33.3751148","Longitude":"-112.5769281","Club":"Yes","Seasons":{"Participated":"4"}},
{"field1":"245","Institution":"Buckingham Charter Magnet High School","State":"California","Address":"188 Bella Vista Rd Vacaville CA 95687","Latitude":"38.347932","Longitude":"-121.987686","Club":"Yes","Seasons":{"Participated":"1"}},
{"field1":"246","Institution":"Buena High School","State":"Arizona","Address":"5670 Telegraph Rd Ventura CA 93003","Latitude":"31.5702337","Longitude":"-110.2382282","Club":"","Seasons":{"Participated":"1"}},
{"field1":"247","Institution":"Buena Park High School","State":"California","Address":"8833 Academy Dr Buena Park CA 90621","Latitude":"33.8616809","Longitude":"-117.9770234","Club":"No","Seasons":{"Participated":"2"}},
{"field1":"248","Institution":"Bullard High School","State":"California","Address":"5445 N Palm Ave Fresno CA 93704","Latitude":"36.8176943","Longitude":"-119.8107191","Club":"","Seasons":{"Participated":"2"}},
{"field1":"249","Institution":"Bur Oak Secondary School","State":"Ontario","Address":"933 Bur Oak Ave  Markham  ON L6E 1G4  Canada","Latitude":"43.89693","Longitude":"-79.2787","Club":"No","Seasons":{"Participated":"1"}},
{"field1":"250","Institution":"Burbank High School","State":"California","Address":"902 N 3rd St Burbank CA 91502","Latitude":"34.187289","Longitude":"-118.3142657","Club":"","Seasons":{"Participated":"4"}},
{"field1":"251","Institution":"Burlingame High School","State":"California","Address":"1 Mangini Way Burlingame CA 94010","Latitude":"37.5825819","Longitude":"-122.3468864","Club":"No","Seasons":{"Participated":"3"}},
{"field1":"252","Institution":"Burlington High School","State":"Vermont","Address":"550 Dorset St  South Burlington  VT 05403  United States","Latitude":"44.4549","Longitude":"-73.178","Club":"","Seasons":{"Participated":"1"}},
{"field1":"253","Institution":"Burlington-Edison High School","State":"Washington","Address":"301 N Burlington Blvd  Burlington  WA 98233  United States","Latitude":"48.47837","Longitude":"-122.337","Club":"No","Seasons":{"Participated":"1"}},
{"field1":"254","Institution":"Burnaby Central Secondary School","State":"British Columbia","Address":"6011 Deer Lake Pkwy Burnaby BC V5G 0A9 Canada","Latitude":"49.2434818","Longitude":"-122.9750696","Club":"","Seasons":{"Participated":"1"}},
{"field1":"255","Institution":"Burnaby Mountain Secondary School","State":"British Columbia","Address":"8800 Eastlake Dr Burnaby BC V3J 7X5 Canada","Latitude":"49.254792","Longitude":"-122.911284","Club":"","Seasons":{"Participated":"3"}},
{"field1":"256","Institution":"Burnaby South Secondary School","State":"British Columbia","Address":"5455 Rumble St Burnaby BC V5J 2B7 Canada","Latitude":"49.2160118","Longitude":"-122.9851572","Club":"","Seasons":{"Participated":"2"}},
{"field1":"257","Institution":"Burnaby South Secondary School","State":"British Columbia","Address":"street  5455 Rumble St  Burnaby  BC V5J 2B7  Canada","Latitude":"49.216","Longitude":"-122.99","Club":"","Seasons":{"Participated":"2"}},
{"field1":"258","Institution":"Burnsville High School","State":"Minnesota","Address":"600 MN-13 Burnsville MN 55337","Latitude":"44.7846819","Longitude":"-93.2663936","Club":"No","Seasons":{"Participated":"3"}},
{"field1":"259","Institution":"Bush School","State":"Washington","Address":"3400 E Harrison St Seattle WA 98112","Latitude":"47.6228784","Longitude":"-122.2886815","Club":"","Seasons":{"Participated":"2"}},
{"field1":"260","Institution":"Business Careers High School","State":"Texas","Address":"6500 Ingram Rd San Antonio TX 78238","Latitude":"29.4646933","Longitude":"-98.6182809","Club":"","Seasons":{"Participated":"4"}},
{"field1":"261","Institution":"Butler County High School","State":"Kentucky","Address":"1147 S Main St Morgantown KY 42261","Latitude":"37.2052708","Longitude":"-86.7005314","Club":"","Seasons":{"Participated":"1"}},
{"field1":"262","Institution":"Byng Junior High School","State":"Oklahoma","Address":"500 New Bethel Blvd Ada OK 74820","Latitude":"34.8617818","Longitude":"-96.6654008","Club":"","Seasons":{"Participated":"1"}},
{"field1":"263","Institution":"Byrne Creek Secondary School","State":"British Columbia","Address":"7777 18th St Burnaby BC V3N 5E5 Canada","Latitude":"49.2082257","Longitude":"-122.9520338","Club":"No","Seasons":{"Participated":"1"}},
{"field1":"264","Institution":"Byron P. Steele II High School","State":"Texas","Address":"1300 FM1103 Cibolo TX 78108","Latitude":"29.5758229","Longitude":"-98.2159963","Club":"Yes","Seasons":{"Participated":"2"}},
{"field1":"265","Institution":"C. K. McClatchy High School","State":"California","Address":"3066 Freeport Blvd Sacramento CA 95818","Latitude":"38.5485171","Longitude":"-121.4907884","Club":"","Seasons":{"Participated":"4"}},
{"field1":"266","Institution":"C. Milton Wright High School","State":"Maryland","Address":"1301 N Fountain Green Rd Bel Air MD 21015","Latitude":"39.5615926","Longitude":"-76.3301611","Club":"","Seasons":{"Participated":"2"}},
{"field1":"267","Institution":"C. W. Baker High School","State":"New York","Address":"29 E Oneida St Baldwinsville NY 13027","Latitude":"43.1636085","Longitude":"-76.3333725","Club":"No","Seasons":{"Participated":"2"}},
{"field1":"268","Institution":"Cactus Shadows High School","State":"Arizona","Address":"5802 E Dove Valley Rd  Cave Creek  AZ 85331  United States","Latitude":"33.7848","Longitude":"-111.96","Club":"","Seasons":{"Participated":"1"}},
{"field1":"269","Institution":"Caddo Magnet High School","State":"Louisiana","Address":"1601 Viking Dr Shreveport LA 71101","Latitude":"32.49726","Longitude":"-93.7199069","Club":"","Seasons":{"Participated":"1"}},
{"field1":"270","Institution":"Calabasas High School","State":"California","Address":"22855 Mulholland Hwy  Calabasas  CA 91302  United States","Latitude":"34.1376","Longitude":"-118.63","Club":"","Seasons":{"Participated":"6"}},
{"field1":"271","Institution":"Calabasas High School","State":"California","Address":"22855 W Mulholland Highway Calabasas CA 91302","Latitude":"34.137574","Longitude":"-118.627602","Club":"","Seasons":{"Participated":"6"}},
{"field1":"272","Institution":"Calallen High School","State":"Texas","Address":"4001 Wildcat Dr  Corpus Christi  TX 78410  United States","Latitude":"27.8572","Longitude":"-97.636","Club":"","Seasons":{"Participated":"1"}},
{"field1":"273","Institution":"Caledonia High School","State":"Michigan","Address":"9050 Kraft Ave SE Caledonia MI 49316","Latitude":"42.7995937","Longitude":"-85.5237969","Club":"","Seasons":{"Participated":"1"}},
{"field1":"274","Institution":"Calexico High School","State":"California","Address":"1030 Encinas Ave Calexico CA 92231","Latitude":"32.6770421","Longitude":"-115.4871461","Club":"","Seasons":{"Participated":"2"}},
{"field1":"275","Institution":"California Academy of Math and Science","State":"California","Address":"1000 E Victoria St Carson CA 90747","Latitude":"33.8652873","Longitude":"-118.2589841","Club":"","Seasons":{"Participated":"1"}},
{"field1":"276","Institution":"California High School","State":"California","Address":"9870 Broadmoor Dr  San Ramon  CA 94583  United States","Latitude":"37.7477","Longitude":"-121.95","Club":"","Seasons":{"Participated":"1"}},
{"field1":"277","Institution":"Camas High School","State":"Washington","Address":"26900 SE 15th St Camas WA 98607","Latitude":"45.6122901","Longitude":"-122.3982092","Club":"","Seasons":{"Participated":"1"}},
{"field1":"278","Institution":"Cambrain College","State":"Ontario","Address":"1400 Barry Downe Rd  Sudbury  ON P3A 3V8  Canada","Latitude":"46.5285","Longitude":"-80.941","Club":"","Seasons":{"Participated":"1"}},
{"field1":"279","Institution":"Cambridge High School","State":"Georgia","Address":"2845 Bethany Rd Milton GA 30004","Latitude":"34.1181023","Longitude":"-84.2752164","Club":"Yes","Seasons":{"Participated":"1"}},
{"field1":"280","Institution":"Cambridge Rindge and Latin School","State":"Massachusetts","Address":"459 Broadway  Cambridge  MA 02138  United States","Latitude":"42.3744","Longitude":"-71.112","Club":"","Seasons":{"Participated":"1"}},
{"field1":"281","Institution":"Cambridge-Isanti High School","State":"Minnesota","Address":"430 8th Ave NW Cambridge MN 55008","Latitude":"45.5805555","Longitude":"-93.2294444","Club":"","Seasons":{"Participated":"2"}},
{"field1":"282","Institution":"Camden County High School","State":"Georgia","Address":"6300 Laurel Island Pkwy  Kingsland  GA 31548  United States","Latitude":"30.8181","Longitude":"-81.647","Club":"","Seasons":{"Participated":"1"}},
{"field1":"283","Institution":"Camden Hills Regional High School","State":"Maine","Address":"25 Keelson Dr Rockport ME 04856","Latitude":"44.188928","Longitude":"-69.100635","Club":"","Seasons":{"Participated":"1"}},
{"field1":"284","Institution":"Camdenton High School","State":"Missouri","Address":"662 Laker Pride Rd  Camdenton  MO 65020  United States","Latitude":"38.01315","Longitude":"-92.7292","Club":"No","Seasons":{"Participated":"1"}},
{"field1":"285","Institution":"Campo Verde High School","State":"Arizona","Address":"3870 S Quartz St  Gilbert  AZ 85297  United States","Latitude":"33.28","Longitude":"-111.76","Club":"","Seasons":{"Participated":"2"}},
{"field1":"286","Institution":"Campolindo High School","State":"Arizona","Address":"300 Moraga Rd  Moraga  CA 94556  United States","Latitude":"37.8664","Longitude":"-122.13","Club":"","Seasons":{"Participated":"3"}},
{"field1":"287","Institution":"Canfield High School","State":"Ohio","Address":"100 Cardinal Dr Canfield OH 44406","Latitude":"41.0283282","Longitude":"-80.7732385","Club":"","Seasons":{"Participated":"1"}},
{"field1":"288","Institution":"Canyon Crest Academy","State":"California","Address":"5951 E Village Center Loop Rd San Diego CA 92130","Latitude":"32.95773","Longitude":"-117.1887052","Club":"","Seasons":{"Participated":"1"}},
{"field1":"289","Institution":"Canyon View High School","State":"Utah","Address":"166 W 1925 N Cedar City UT 84721","Latitude":"37.7137828","Longitude":"-113.0629628","Club":"","Seasons":{"Participated":"1"}},
{"field1":"290","Institution":"Cape Central High School","State":"Missouri","Address":"1000 S Silver Springs Rd  Cape Girardeau  MO 63703  United States","Latitude":"37.27683","Longitude":"-89.5652","Club":"","Seasons":{"Participated":"2"}},
{"field1":"291","Institution":"Cape Coral High School","State":"Florida","Address":"2300 Santa Barbara Blvd Cape Coral FL 33991","Latitude":"26.6090435","Longitude":"-81.975849","Club":"","Seasons":{"Participated":"1"}},
{"field1":"292","Institution":"Cape Henry Collegiate School","State":"Virginia","Address":"1320 Mill Dam Rd  Virginia Beach  VA 23454  United States","Latitude":"36.87661","Longitude":"-76.0293","Club":"Yes","Seasons":{"Participated":"1"}},
{"field1":"293","Institution":"Capital High School","State":"Washington","Address":"2707 Conger Ave NW Olympia WA 98502","Latitude":"47.0504393","Longitude":"-122.9354829","Club":"","Seasons":{"Participated":"3"}},
{"field1":"294","Institution":"Captain Shreve High School","State":"Louisiana","Address":"6115 E Kings Hwy  Shreveport  LA 71105  United States","Latitude":"32.4484","Longitude":"-93.714","Club":"","Seasons":{"Participated":"1"}},
{"field1":"295","Institution":"Cardinal Carter Academy for the Arts","State":"Ontario","Address":"36 Greenfield Avenue Toronto ON M4K 3N8 Canada","Latitude":"43.7640305","Longitude":"-79.4096791","Club":"No","Seasons":{"Participated":"1"}},
{"field1":"296","Institution":"Carl Hayden Community High School","State":"Arizona","Address":"3333 W Roosevelt St Phoenix AZ 85009","Latitude":"33.457811","Longitude":"-112.1322858","Club":"","Seasons":{"Participated":"1"}},
{"field1":"297","Institution":"Carl Sandburg High School","State":"Illinois","Address":"13300 South La Grange Road Orland Park IL 60462","Latitude":"41.6495515","Longitude":"-87.8551136","Club":"","Seasons":{"Participated":"1"}},
{"field1":"298","Institution":"Carl-Friedrich-Gaub-Schule Hemmingen","State":"Germany","Address":"Hohe Bnte 4  30966 Hemmingen  Germany","Latitude":"52.3268","Longitude":"9.74431","Club":"","Seasons":{"Participated":"1"}},
{"field1":"299","Institution":"Carlmont High School","State":"California","Address":"1400 Alameda de las Pulgas Belmont CA 94002","Latitude":"37.506137","Longitude":"-122.28917","Club":"No","Seasons":{"Participated":"3"}},
{"field1":"300","Institution":"Carmel Catholic High School","State":"Illinois","Address":"1 Carmel Pkwy Mundelein IL 60060","Latitude":"42.2716182","Longitude":"-87.9875121","Club":"No","Seasons":{"Participated":"2"}},
{"field1":"301","Institution":"Carmel High School","State":"Indiana","Address":"520 E Main St Carmel IN 46032","Latitude":"39.9802773","Longitude":"-86.1194118","Club":"","Seasons":{"Participated":"3"}},
{"field1":"302","Institution":"Carnegie Vanguard High School","State":"Texas","Address":"1501 Taft St Houston TX 77019","Latitude":"29.753991","Longitude":"-95.385084","Club":"","Seasons":{"Participated":"1"}},
{"field1":"303","Institution":"Carroll Senior High School","State":"Texas","Address":"1501 W Southlake Blvd Southlake TX 76092","Latitude":"32.9403905","Longitude":"-97.1750091","Club":"","Seasons":{"Participated":"1"}},
{"field1":"304","Institution":"Carson Graham Secondary School","State":"British Columbia","Address":"2145 Jones Ave  North Vancouver  BC V7M 2W7  Canada","Latitude":"49.32888","Longitude":"-123.083","Club":"No","Seasons":{"Participated":"1"}},
{"field1":"305","Institution":"Carson High School","State":"California","Address":"22328 S Main St Carson CA 90745","Latitude":"33.8237889","Longitude":"-118.2755011","Club":"","Seasons":{"Participated":"2"}},
{"field1":"306","Institution":"Carter Riverside High School","State":"Texas","Address":"3301 Yucca Ave  Fort Worth  TX 76111  United States","Latitude":"32.7816","Longitude":"-97.3","Club":"","Seasons":{"Participated":"1"}},
{"field1":"307","Institution":"Carver Christian High School","State":"British Columbia","Address":"7650 Sapperton Ave Burnaby BC V3N 4E1 Canada","Latitude":"49.236689","Longitude":"-122.899112","Club":"","Seasons":{"Participated":"1"}},
{"field1":"308","Institution":"Cary Grove High School","State":"Illinois","Address":"2208 3 Oaks Rd Cary IL 60013","Latitude":"42.2213843","Longitude":"-88.2413835","Club":"","Seasons":{"Participated":"2"}},
{"field1":"309","Institution":"Casco Bay High School","State":"Maine","Address":"196 Allen Ave Portland ME 04103","Latitude":"43.6973159","Longitude":"-70.2939779","Club":"","Seasons":{"Participated":"1"}},
{"field1":"310","Institution":"Castlebrooke Secondary School","State":"Ontario","Address":"10 Gardenbrooke Trail Brampton ON L6P 3L1 Canada","Latitude":"43.7836975","Longitude":"-79.6776044","Club":"No","Seasons":{"Participated":"1"}},
{"field1":"311","Institution":"Castro Valley High School","State":"California","Address":"19400 Santa Maria Ave  Castro Valley  CA 94546  United States","Latitude":"37.7043","Longitude":"-122.08","Club":"","Seasons":{"Participated":"1"}},
{"field1":"312","Institution":"Cate School","State":"California","Address":"1960 Cate Mesa Rd  Carpinteria  CA 93013  United States","Latitude":"34.405","Longitude":"-119.48","Club":"","Seasons":{"Participated":"1"}},
{"field1":"313","Institution":"Cathedral Preparatory School","State":"Texas","Address":"850 Forsythe St  Beaumont  TX 77701  United States","Latitude":"30.0783","Longitude":"-94.102","Club":"","Seasons":{"Participated":"1"}},
{"field1":"314","Institution":"Catholic Central High School","State":"Alberta","Address":"405 18 St S Lethbridge AB T1J 3E5 Canada","Latitude":"49.6943376","Longitude":"-112.8154204","Club":"","Seasons":{"Participated":"2"}},
{"field1":"315","Institution":"Catholic High School","State":"Louisiana","Address":"855 Hearthstone Dr  Baton Rouge  LA 70806  United States","Latitude":"30.4407","Longitude":"-91.157","Club":"","Seasons":{"Participated":"1"}},
{"field1":"316","Institution":"Catonsville High School","State":"Maryland","Address":"421 Bloomsbury Ave  Catonsville  MD 21228  United States","Latitude":"39.2593","Longitude":"-76.732","Club":"","Seasons":{"Participated":"2"}},
{"field1":"317","Institution":"Cedar Cliff High School","State":"Pennsylvania","Address":"1301 Carlisle Rd Camp Hill PA 17011","Latitude":"40.2293664","Longitude":"-76.8962782","Club":"","Seasons":{"Participated":"1"}},
{"field1":"318","Institution":"Cedar Creek High School","State":"New Jersey","Address":"1701 New York Ave Egg Harbor City NJ 08215","Latitude":"39.5517727","Longitude":"-74.628067","Club":"Yes","Seasons":{"Participated":"2"}},
{"field1":"319","Institution":"Cedarburg High School","State":"Wisconsin","Address":"W68 N611 Evergreen Blvd Cedarburg WI 53012","Latitude":"43.2979829","Longitude":"-87.9966604","Club":"","Seasons":{"Participated":"3"}},
{"field1":"320","Institution":"Cegep de Saint-Jean-sur-Richelieu","State":"Quebec","Address":"30 Boulevard du Seminaire N  Saint-Jean-sur-Richelieu  QC J3B 5J4  Canada","Latitude":"45.2974","Longitude":"-73.269","Club":"","Seasons":{"Participated":"1"}},
{"field1":"321","Institution":"Centennial High School","State":"Minnesota","Address":"4757 North Rd Circle Pines MN 55014","Latitude":"45.15302","Longitude":"-93.1497","Club":"","Seasons":{"Participated":"4"}},
{"field1":"322","Institution":"Centennial High School","State":"California","Address":"1820 Rimpau Ave Corona CA 92881","Latitude":"33.8582061","Longitude":"-117.5461578","Club":"","Seasons":{"Participated":"2"}},
{"field1":"323","Institution":"Centennial Secondary School","State":"British Columbia","Address":"570 Poirier St Coquitlam BC V3J 6A8 Canada","Latitude":"49.2526723","Longitude":"-122.8469517","Club":"","Seasons":{"Participated":"3"}},
{"field1":"324","Institution":"Center for Advanced Research and Technology","State":"California","Address":"2555 Clovis Ave Clovis CA 93612","Latitude":"36.803303","Longitude":"-119.6976942","Club":"","Seasons":{"Participated":"1"}},
{"field1":"325","Institution":"Central Catholic High School","State":"Oregon","Address":"2401 SE Stark St Portland OR 97214","Latitude":"45.520028","Longitude":"-122.640233","Club":"Yes","Seasons":{"Participated":"2"}},
{"field1":"326","Institution":"Central City Value High School","State":"California","Address":"221 N Westmoreland Ave Los Angeles CA 90004","Latitude":"34.075094","Longitude":"-118.288617","Club":"","Seasons":{"Participated":"2"}},
{"field1":"327","Institution":"Central Elgin Collegiate Institute","State":"Ontario","Address":"St. Thomas  ON N5R 2B5  Canada","Latitude":"42.76971","Longitude":"-81.1723","Club":"","Seasons":{"Participated":"1"}},
{"field1":"328","Institution":"Central High School","State":"Alabama","Address":"905 15th Street Tuscaloosa Alabama 35401","Latitude":"33.19785","Longitude":"-87.5475","Club":"","Seasons":{"Participated":"5"}},
{"field1":"329","Institution":"Central High School","State":"Missouri","Address":"423 E. Central St. Springfield MO 65802","Latitude":"37.217994","Longitude":"-93.288546","Club":"Yes","Seasons":{"Participated":"1"}},
{"field1":"330","Institution":"Central High School Martinsburg","State":"Pennsylvania","Address":"718 Central High Road Martinsburg PA 16662","Latitude":"40.3072774","Longitude":"-78.3388215","Club":"No","Seasons":{"Participated":"1"}},
{"field1":"331","Institution":"Central Lee High School","State":"Iowa","Address":"2642 US-218  Donnellson  IA 52625  United States","Latitude":"40.577","Longitude":"-91.521","Club":"","Seasons":{"Participated":"2"}},
{"field1":"332","Institution":"Central Medical Magnet High School","State":"Texas","Address":"88 Jaguar Dr  Beaumont  TX 77702  United States","Latitude":"30.0774","Longitude":"-94.126","Club":"","Seasons":{"Participated":"1"}},
{"field1":"333","Institution":"Centreville High School","State":"Maryland","Address":"125 Ruthsburg Rd  Centreville  MD 21617  United States","Latitude":"39.036","Longitude":"-76.054","Club":"","Seasons":{"Participated":"1"}},
{"field1":"334","Institution":"Century High School","State":"California","Address":"1401 S Grand Ave Santa Ana CA 92705","Latitude":"33.7294103","Longitude":"-117.8488236","Club":"","Seasons":{"Participated":"1"}},
{"field1":"335","Institution":"Cerritos High School","State":"California","Address":"12500 183rd St Cerritos CA 90703","Latitude":"33.8653732","Longitude":"-118.0648736","Club":"","Seasons":{"Participated":"1"}},
{"field1":"336","Institution":"Cesar Chavez High School","State":"Arizona","Address":"3921 W Baseline Rd Laveen Village AZ 85339","Latitude":"33.3759016","Longitude":"-112.1452164","Club":"","Seasons":{"Participated":"2"}},
{"field1":"337","Institution":"Cesar Chavez High School","State":"California","Address":"2929 Windflower Ln  Stockton  CA 95212  United States","Latitude":"38.01321","Longitude":"-121.268","Club":"Yes","Seasons":{"Participated":"1"}},
{"field1":"338","Institution":"Chadwick School","State":"California","Address":"26800 S Academy Dr Palos Verdes Peninsula CA 90274","Latitude":"33.7773887","Longitude":"-118.3610998","Club":"","Seasons":{"Participated":"2"}},
{"field1":"339","Institution":"Chaffey High School","State":"California","Address":"1245 N Euclid Ave Ontario CA 91762","Latitude":"34.0802505","Longitude":"-117.6544852","Club":"No","Seasons":{"Participated":"1"}},
{"field1":"340","Institution":"Chaminade College Preparatory School","State":"Missouri","Address":"425 S Lindbergh Blvd St. Louis MO 63131","Latitude":"38.6496389","Longitude":"-90.4070359","Club":"","Seasons":{"Participated":"1"}},
{"field1":"341","Institution":"Chaminade High School","State":"California","Address":"7500 Chaminade Ave  Canoga Park  CA 91304  United States","Latitude":"34.2068","Longitude":"-118.64","Club":"No","Seasons":{"Participated":"3"}},
{"field1":"342","Institution":"Chaminade-Julienne High School","State":"Ohio","Address":"505 S Ludlow St Dayton OH 45402","Latitude":"39.752814","Longitude":"-84.1922151","Club":"No","Seasons":{"Participated":"1"}},
{"field1":"343","Institution":"Champlain Valley Union High School","State":"Vermont","Address":"369 C V U Rd  Hinesburg  VT 05461  United States","Latitude":"44.34466","Longitude":"-73.11","Club":"","Seasons":{"Participated":"1"}},
{"field1":"344","Institution":"Champlin Park High School","State":"Minnesota","Address":"6025 109th Ave N  Champlin  MN 55316  United States","Latitude":"45.1502","Longitude":"-93.355","Club":"","Seasons":{"Participated":"2"}},
{"field1":"345","Institution":"CHAMPS Charter High School of the Arts","State":"British Columbia","Address":"6842 Van Nuys Blvd  Van Nuys  CA 91405  United States","Latitude":"34.1952","Longitude":"-118.45","Club":"","Seasons":{"Participated":"1"}},
{"field1":"346","Institution":"Chandler High School","State":"Arizona","Address":"350 N Arizona Ave Chandler AZ 85225","Latitude":"33.3088568","Longitude":"-111.8426777","Club":"No","Seasons":{"Participated":"5"}},
{"field1":"347","Institution":"Chantilly High School","State":"Virginia","Address":"4201 Stringfellow Rd Chantilly VA 20151","Latitude":"38.8803724","Longitude":"-77.4067336","Club":"","Seasons":{"Participated":"2"}},
{"field1":"348","Institution":"Chaparral High School","State":"California","Address":"27215 Nicolas Rd  Temecula  CA 92591  United States","Latitude":"33.53836","Longitude":"-117.148","Club":"","Seasons":{"Participated":"4"}},
{"field1":"349","Institution":"Chapel Hill High School","State":"North Carolina","Address":"1709 High School Rd  Chapel Hill  NC 27516  United States","Latitude":"35.9467","Longitude":"-79.081","Club":"","Seasons":{"Participated":"1"}},
{"field1":"350","Institution":"Chardon High School","State":"Ohio","Address":"151 Chardon Ave  Chardon  OH 44024  United States","Latitude":"41.5911","Longitude":"-81.2","Club":"","Seasons":{"Participated":"1"}},
{"field1":"351","Institution":"Chariho High School","State":"Rhode Island","Address":"453 Switch Rd Wood River Junction RI 02894","Latitude":"41.450104","Longitude":"-71.696278","Club":"No","Seasons":{"Participated":"1"}},
{"field1":"352","Institution":"Charles F. Brush High School","State":"Ohio","Address":"4875 Glenlyn Rd Lyndhurst OH 44124","Latitude":"41.5220534","Longitude":"-81.5046209","Club":"","Seasons":{"Participated":"1"}},
{"field1":"353","Institution":"Charles W. Flanagan High School","State":"Florida","Address":"12800 Taft St Pembroke Pines FL 33028","Latitude":"26.021143","Longitude":"-80.322007","Club":"","Seasons":{"Participated":"1"}},
{"field1":"354","Institution":"Charter Oak High School","State":"California","Address":"1430 E Covina Blvd Covina CA 91724","Latitude":"34.0986199","Longitude":"-117.8606165","Club":"","Seasons":{"Participated":"2"}},
{"field1":"355","Institution":"Charter School of Wilmington","State":"Delaware","Address":"100 N Dupont Rd Wilmington DE 19807","Latitude":"39.7538054","Longitude":"-75.5877935","Club":"","Seasons":{"Participated":"5"}},
{"field1":"356","Institution":"Chatham Charter High School","State":"North Carolina","Address":"2200 Hamp Stone Rd Siler City NC 27344","Latitude":"35.742905","Longitude":"-79.480982","Club":"Yes","Seasons":{"Participated":"3"}},
{"field1":"357","Institution":"Chatham High School","State":"New Jersey","Address":"255 Lafayette Ave Chatham Township NJ 07928","Latitude":"40.7314591","Longitude":"-74.4010947","Club":"","Seasons":{"Participated":"1"}},
{"field1":"358","Institution":"Chatsworth Charter High School","State":"California","Address":"10027 Lurline Ave Chatsworth CA 91311","Latitude":"34.2533875","Longitude":"-118.5863634","Club":"","Seasons":{"Participated":"4"}},
{"field1":"359","Institution":"Cheraw High School","State":"South Carolina","Address":"649 Chesterfield Hwy Cheraw SC 29520","Latitude":"34.6937251","Longitude":"-79.9144565","Club":"","Seasons":{"Participated":"1"}},
{"field1":"360","Institution":"Cherry Creek High School","State":"Colorado","Address":"9300 E Union Ave Greenwood Village CO 80111","Latitude":"39.6299727","Longitude":"-104.880273","Club":"","Seasons":{"Participated":"1"}},
{"field1":"361","Institution":"Cherry Hill High School East","State":"New Jersey","Address":"1750 Kresson Rd Cherry Hill NJ 08003","Latitude":"39.8764458","Longitude":"-74.9638803","Club":"","Seasons":{"Participated":"6"}},
{"field1":"362","Institution":"Cheshire Academy","State":"Connecticut","Address":"10 Main St Cheshire CT 06410","Latitude":"41.5012083","Longitude":"-72.8973246","Club":"","Seasons":{"Participated":"2"}},
{"field1":"363","Institution":"Chestermere High School","State":"Alberta","Address":"Trans-Canada Hwy  Calgary  AB T2P 2G7  Canada","Latitude":"51.0266","Longitude":"-113.77","Club":"","Seasons":{"Participated":"2"}},
{"field1":"364","Institution":"Cheverus High School","State":"Maine","Address":"267 Ocean Ave Portland ME 04103","Latitude":"43.6792079","Longitude":"-70.2762448","Club":"","Seasons":{"Participated":"2"}},
{"field1":"365","Institution":"Cheyenne Mountain High School","State":"Ontario","Address":"1200 Cresta Rd  Colorado Springs  CO 80906  United States","Latitude":"38.8031","Longitude":"-104.86","Club":"","Seasons":{"Participated":"1"}},
{"field1":"366","Institution":"Chiawana High School","State":"Washington","Address":"8125 Argent Rd Pasco WA 99301","Latitude":"46.257449","Longitude":"-119.198914","Club":"","Seasons":{"Participated":"1"}},
{"field1":"367","Institution":"Chico Senior High School","State":"California","Address":"901 Esplanade  Chico  CA 95926  United States","Latitude":"39.73579","Longitude":"-121.845","Club":"","Seasons":{"Participated":"1"}},
{"field1":"368","Institution":"Chief Sealth International High School","State":"Washington","Address":"2600 SW Thistle St Seattle WA 98126","Latitude":"47.5300986","Longitude":"-122.3662376","Club":"","Seasons":{"Participated":"1"}},
{"field1":"369","Institution":"Chilliwack Secondary School","State":"British Columbia","Address":"46363 Yale Rd Chilliwack BC Canada","Latitude":"49.175641","Longitude":"-121.942705","Club":"","Seasons":{"Participated":"1"}},
{"field1":"370","Institution":"Chino High School","State":"California","Address":"5472 Park Pl Chino CA 91710","Latitude":"34.0215319","Longitude":"-117.6853829","Club":"No","Seasons":{"Participated":"2"}},
{"field1":"371","Institution":"Chino Hills High School","State":"California","Address":"16150 Pomona Rincon Rd  Chino Hills  CA 91709  United States","Latitude":"33.9599","Longitude":"-117.69","Club":"","Seasons":{"Participated":"2"}},
{"field1":"372","Institution":"Chisholm Trail High School","State":"Texas","Address":"3100 NW College Dr  Fort Worth  TX 76179  United States","Latitude":"32.838","Longitude":"-97.394","Club":"","Seasons":{"Participated":"1"}},
{"field1":"373","Institution":"Christ the King High School","State":"New York","Address":"68-02 Metropolitan Ave Middle Village NY 11379","Latitude":"40.7107473","Longitude":"-73.8883866","Club":"","Seasons":{"Participated":"1"}},
{"field1":"374","Institution":"Christchurch School","State":"Virginia","Address":"49 Seahorse Lane  Christchurch  VA 23031  United States","Latitude":"37.61232","Longitude":"-76.5499","Club":"Yes","Seasons":{"Participated":"1"}},
{"field1":"375","Institution":"Christian Life Academy","State":"Louisiana","Address":"2037 Quail Dr Baton Rouge LA 70808","Latitude":"30.3964564","Longitude":"-91.1297498","Club":"","Seasons":{"Participated":"2"}},
{"field1":"376","Institution":"Christopher Columbus High School","State":"New York","Address":"925 Astor Ave  Bronx  NY 10469  United States","Latitude":"40.8603","Longitude":"-73.86","Club":"","Seasons":{"Participated":"1"}},
{"field1":"377","Institution":"Christopher High School","State":"California","Address":"850 Day Rd Gilroy CA 95020 United States","Latitude":"37.0373942","Longitude":"-121.6007934","Club":"","Seasons":{"Participated":"1"}},
{"field1":"378","Institution":"Chugiak High School","State":"Alaska","Address":"16525 S Birchwood Loop Rd Chugiak AK 99567","Latitude":"61.3691683","Longitude":"-149.5349334","Club":"No","Seasons":{"Participated":"1"}},
{"field1":"379","Institution":"Church Farm School","State":"Pennsylvania","Address":"1001 E Lincoln Hwy  Exton  PA 19341  United States","Latitude":"40.032","Longitude":"-75.596","Club":"","Seasons":{"Participated":"2"}},
{"field1":"380","Institution":"Churchill High School","State":"Oregon","Address":"1850 Bailey Hill Rd Eugene OR 97405","Latitude":"44.0392265","Longitude":"-123.1512419","Club":"","Seasons":{"Participated":"1"}},
{"field1":"381","Institution":"Churchland High School","State":"Virginia","Address":"4301 Cedar Ln Portsmouth VA 23703","Latitude":"36.8804329","Longitude":"-76.3709524","Club":"","Seasons":{"Participated":"1"}},
{"field1":"382","Institution":"Cibola High School","State":"New Mexico","Address":"1510 Ellison Dr NW  Albuquerque  NM 87114  United States","Latitude":"35.20472","Longitude":"-106.663","Club":"Yes","Seasons":{"Participated":"1"}},
{"field1":"383","Institution":"Cicero-North Syracuse High School","State":"New York","Address":"6002 NY-31 Cicero NY 13039","Latitude":"43.1743208","Longitude":"-76.1040179","Club":"","Seasons":{"Participated":"1"}},
{"field1":"384","Institution":"Cinco Ranch High School","State":"Texas","Address":"23440 Cinco Ranch Blvd Katy TX 77494","Latitude":"29.7454414","Longitude":"-95.7795703","Club":"","Seasons":{"Participated":"2"}},
{"field1":"385","Institution":"Citadel High School","State":"Nova Scotia","Address":"1855 Trollope St  Halifax  NS B3H 0A4  Canada","Latitude":"44.6473","Longitude":"-63.585","Club":"","Seasons":{"Participated":"1"}},
{"field1":"386","Institution":"Citrus Valley High School","State":"California","Address":"800 W Pioneer Ave Redlands CA 92374","Latitude":"34.0816889","Longitude":"-117.1929412","Club":"","Seasons":{"Participated":"1"}},
{"field1":"387","Institution":"Civic Memorial High School","State":"Illinois","Address":"200 School St Bethalto IL 62010","Latitude":"38.9095717","Longitude":"-90.0629189","Club":"","Seasons":{"Participated":"1"}},
{"field1":"388","Institution":"Clairemont High School","State":"California","Address":"4150 Ute Dr San Diego CA 92117","Latitude":"32.8091859","Longitude":"-117.2035737","Club":"","Seasons":{"Participated":"3"}},
{"field1":"389","Institution":"Clark College","State":"Washington","Address":"1933 Fort Vancouver Way Vancouver WA 98663","Latitude":"45.6360374","Longitude":"-122.6509315","Club":"","Seasons":{"Participated":"1"}},
{"field1":"390","Institution":"Clark Magnet High School","State":"California","Address":"4747 New York Ave La Crescenta CA 91214","Latitude":"34.2373177","Longitude":"-118.2540407","Club":"","Seasons":{"Participated":"3"}},
{"field1":"391","Institution":"Clarke High School","State":"Ontario","Address":"3425 Highway 35 115 Newcastle ON L1B 1L9 Canada","Latitude":"43.943306","Longitude":"-78.601868","Club":"","Seasons":{"Participated":"1"}},
{"field1":"392","Institution":"Clarkston High School","State":"Michigan","Address":"6093 Flemings Lake Rd  Village of Clarkston  MI 48346  United States","Latitude":"42.73911","Longitude":"-83.3929","Club":"No","Seasons":{"Participated":"1"}},
{"field1":"393","Institution":"Clarkstown High School North","State":"New York","Address":"151 Congers Rd New City NY 10956","Latitude":"41.1505056","Longitude":"-73.9701645","Club":"","Seasons":{"Participated":"1"}},
{"field1":"394","Institution":"Classical Academy High School","State":"Colorado","Address":"975 Stout Rd  Colorado Springs  CO 80921  United States","Latitude":"39.01641","Longitude":"-104.817","Club":"No","Seasons":{"Participated":"1"}},
{"field1":"395","Institution":"Clayton High School","State":"Wisconsin","Address":"221 Prentice St  Clayton  WI 54004  United States","Latitude":"45.32824","Longitude":"-92.1725","Club":"","Seasons":{"Participated":"2"}},
{"field1":"396","Institution":"Clayton Valley Charter High School","State":"California","Address":"1101 Alberta Way Concord CA 94521","Latitude":"37.9504652","Longitude":"-121.9695066","Club":"","Seasons":{"Participated":"1"}},
{"field1":"397","Institution":"Clear Lake High School","State":"Texas","Address":"2929 Bay Area Blvd Houston TX 77058","Latitude":"29.5823039","Longitude":"-95.1057028","Club":"","Seasons":{"Participated":"4"}},
{"field1":"398","Institution":"Clearview Regional High School","State":"New Jersey","Address":"625 Breakneck Rd Mullica Hill NJ 08062","Latitude":"39.7504118","Longitude":"-75.2056665","Club":"","Seasons":{"Participated":"7"}},
{"field1":"399","Institution":"Clements High School","State":"Texas","Address":"4200 Elkins Rd  Sugar Land  TX 77479  United States","Latitude":"29.5743","Longitude":"-95.633","Club":"","Seasons":{"Participated":"1"}},
{"field1":"400","Institution":"Cleveland Charter High School","State":"California","Address":"8140 Vanalden Ave Reseda CA 91335","Latitude":"34.217816","Longitude":"-118.547447","Club":"","Seasons":{"Participated":"2"}},
{"field1":"401","Institution":"Clifton High School","State":"New Jersey","Address":"333 Colfax Ave Clifton NJ 07013","Latitude":"40.8697135","Longitude":"-74.1631234","Club":"","Seasons":{"Participated":"1"}},
{"field1":"402","Institution":"Clover Hill High School","State":"Virginia","Address":"13301 Kelly Green Ln Midlothian VA 23112","Latitude":"37.4479115","Longitude":"-77.6398735","Club":"No","Seasons":{"Participated":"2"}},
{"field1":"403","Institution":"Cloverleaf High School","State":"Ohio","Address":"8525 Friendsville Rd Lodi OH 44254","Latitude":"41.0404757","Longitude":"-81.964624","Club":"","Seasons":{"Participated":"1"}},
{"field1":"404","Institution":"Clovis North High School","State":"California","Address":"2770 E International Ave Fresno CA 93730","Latitude":"36.8897188","Longitude":"-119.7334187","Club":"","Seasons":{"Participated":"1"}},
{"field1":"405","Institution":"Cobalt Institute of Math and Science","State":"California","Address":"14045 Topaz Rd Victorville CA 92392","Latitude":"34.5021275","Longitude":"-117.3802578","Club":"","Seasons":{"Participated":"1"}},
{"field1":"406","Institution":"Cocoa Beach High School","State":"Florida","Address":"1500 Minutemen Causeway Cocoa Beach FL 32931","Latitude":"28.3184733","Longitude":"-80.630486","Club":"","Seasons":{"Participated":"3"}},
{"field1":"407","Institution":"Coeur dAlene High School","State":"Idaho","Address":"1400 N Northwood Center Ct Coeur d'Alene ID 83814","Latitude":"47.7216667","Longitude":"-116.7770369","Club":"","Seasons":{"Participated":"1"}},
{"field1":"408","Institution":"Colchester Royal Grammar School","State":"United Kingdom","Address":"6 Lexden Rd  Colchester CO3 3ND  United Kingdom","Latitude":"51.8871","Longitude":"0.88663","Club":"","Seasons":{"Participated":"1"}},
{"field1":"409","Institution":"Colegio Denham School","State":"Chile","Address":"Camino Los Morros 1347  Santiago  Santiago/San Bernardo  Region Metropolitana  Chile","Latitude":"-33.64","Longitude":"-70.675","Club":"","Seasons":{"Participated":"1"}},
{"field1":"410","Institution":"Colegio Labranza de Dios","State":"Chile","Address":"Calle Miraflores 467  Vina del Mar  Vregion  Regin de Valparaso  Chile","Latitude":"-33.036","Longitude":"-71.53","Club":"","Seasons":{"Participated":"1"}},
{"field1":"411","Institution":"Collaborative Educational Campus","State":"New York","Address":"1100 Boston Rd Bronx NY 10456","Latitude":"40.827064","Longitude":"-73.9036466","Club":"","Seasons":{"Participated":"1"}},
{"field1":"412","Institution":"College de lAssomption","State":"Quebec","Address":"270 Boulevard de l'Ange-Gardien  L'Assomption  QC J5W 1R7  Canada","Latitude":"45.8282","Longitude":"-73.423","Club":"","Seasons":{"Participated":"1"}},
{"field1":"413","Institution":"College des Compagnons","State":"Quebec","Address":"3643 Avenue des Compagnons Quebec City Quebec G1X 3Z6 Canada","Latitude":"46.7595733","Longitude":"-71.3284661","Club":"","Seasons":{"Participated":"1"}},
{"field1":"414","Institution":"College Francois-Xavier-Garneau","State":"Quebec","Address":"1660 Boulevard de l'Entente  Ville de Quebec  QC G1S 4S3  Canada","Latitude":"46.7937","Longitude":"-71.263","Club":"","Seasons":{"Participated":"1"}},
{"field1":"415","Institution":"College of Southern Nevada High School","State":"Nevada","Address":"700 College Dr Henderson NV 89002","Latitude":"36.0071689","Longitude":"-114.9657921","Club":"","Seasons":{"Participated":"2"}},
{"field1":"416","Institution":"College of Southern Nevada High School West","State":"Nevada","Address":"6375 W Charleston Blvd Las Vegas  NV 89146","Latitude":"36.159087","Longitude":"-115.234686","Club":"","Seasons":{"Participated":"1"}},
{"field1":"417","Institution":"College Regina Assumpta","State":"Quebec","Address":"1750 Rue Sauriol E  Montral  QC H2C 1X4  Canada","Latitude":"45.56513","Longitude":"-73.6501","Club":"Yes","Seasons":{"Participated":"1"}},
{"field1":"418","Institution":"College Sainte-Anne de Lachine","State":"Quebec","Address":"2M8  1250 Boulevard Saint-Joseph  Lachine  Quebec H8S  Canada","Latitude":"45.4325","Longitude":"-73.674","Club":"","Seasons":{"Participated":"1"}},
{"field1":"419","Institution":"Collingwood School","State":"British Columbia","Address":"70 Morven Dr West Vancouver BC V7S 1B2 Canada","Latitude":"49.3607334","Longitude":"-123.1197881","Club":"No","Seasons":{"Participated":"2"}},
{"field1":"420","Institution":"Collins Hill High School","State":"Georgia","Address":"50 Taylor Rd  Suwanee  GA 30024  United States","Latitude":"34.01636","Longitude":"-84.0207","Club":"No","Seasons":{"Participated":"1"}},
{"field1":"421","Institution":"Colonel By Secondary School","State":"Ontario","Address":"2381 Ogilvie Rd Gloucester ON K1J 7N4 Canada","Latitude":"45.4552296","Longitude":"-75.6002057","Club":"","Seasons":{"Participated":"1"}},
{"field1":"422","Institution":"Colonial Forge High School","State":"Virginia","Address":"550 Courthouse Rd Stafford VA 22554","Latitude":"38.434851","Longitude":"-77.450952","Club":"No","Seasons":{"Participated":"3"}},
{"field1":"423","Institution":"Colony High School","State":"California","Address":"3850 E Riverside Dr Ontario CA 91761","Latitude":"34.0182617","Longitude":"-117.5691592","Club":"","Seasons":{"Participated":"2"}},
{"field1":"424","Institution":"Colorado Academy","State":"Colorado","Address":"3800 S Pierce St Denver CO 80235","Latitude":"39.6476313","Longitude":"-105.0678027","Club":"","Seasons":{"Participated":"1"}},
{"field1":"425","Institution":"Colorado Preparatory Academy","State":"Colorado","Address":"8601 Turnpike Drive #100 Westminster CO 80031","Latitude":"39.8513409","Longitude":"-105.050881","Club":"Yes","Seasons":{"Participated":"1"}},
{"field1":"426","Institution":"Columbia High School","State":"New York","Address":"962 Luther Rd East Greenbush NY 12061","Latitude":"42.6244229","Longitude":"-73.6911449","Club":"No","Seasons":{"Participated":"1"}},
{"field1":"427","Institution":"Columbia River High School","State":"Washington","Address":"800 NW 99th St  Vancouver  WA 98665  United States","Latitude":"45.6942","Longitude":"-122.68","Club":"No","Seasons":{"Participated":"2"}},
{"field1":"428","Institution":"Columbiana Exempted Village Schools","State":"Ohio","Address":"700 Columbiana  Waterford Rd Columbiana  Ohio  44408","Latitude":"40.88049","Longitude":"-80.6825","Club":"No","Seasons":{"Participated":"1"}},
{"field1":"429","Institution":"Columbiana High School","State":"Ohio","Address":"700 Columbiana-Waterford Rd Columbiana OH 44408","Latitude":"40.8809124","Longitude":"-80.6808921","Club":"","Seasons":{"Participated":"2"}},
{"field1":"430","Institution":"Columbine High School","State":"Colorado","Address":"6201 S Pierce St  Littleton  CO 80123","Latitude":"39.60412","Longitude":"-105.074","Club":"","Seasons":{"Participated":"1"}},
{"field1":"431","Institution":"Columbus North High School","State":"Indiana","Address":"1400 25th St Columbus IN 47201","Latitude":"39.2247737","Longitude":"-85.9111026","Club":"No","Seasons":{"Participated":"1"}},
{"field1":"432","Institution":"Combs High School","State":"Arizona","Address":"2505 E Germann Rd San Tan Valley AZ 85140 United States","Latitude":"33.2766708","Longitude":"-111.540125","Club":"No","Seasons":{"Participated":"2"}},
{"field1":"433","Institution":"Commack High School","State":"New York","Address":"1 Scholar Ln Commack NY 11725","Latitude":"40.8603438","Longitude":"-73.289047","Club":"No","Seasons":{"Participated":"1"}},
{"field1":"434","Institution":"Comstock Park High School","State":"Michigan","Address":"150 6 Mile Rd NE Comstock Park MI 49321","Latitude":"43.0549031","Longitude":"-85.6669243","Club":"Yes","Seasons":{"Participated":"2"}},
{"field1":"435","Institution":"Concord High School","State":"North Carolina","Address":"481 Burrage Rd NE  Concord  NC 28025  United States","Latitude":"35.43287","Longitude":"-80.5813","Club":"No","Seasons":{"Participated":"4"}},
{"field1":"436","Institution":"Concordia High School","State":"Texas","Address":"700 E Main St  Tomball  TX 77375  United States","Latitude":"30.0999","Longitude":"-95.606","Club":"","Seasons":{"Participated":"2"}},
{"field1":"437","Institution":"Coney Island Prep High School","State":"New York","Address":"294 Avenue T  Brooklyn  NY 11223  United States","Latitude":"40.59889","Longitude":"-73.9743","Club":"Yes","Seasons":{"Participated":"1"}},
{"field1":"438","Institution":"Connellsville Area Career and Technical Center","State":"Pennsylvania","Address":"720 Locust St Connellsville PA 15425","Latitude":"40.0256924","Longitude":"-79.5698263","Club":"","Seasons":{"Participated":"1"}},
{"field1":"439","Institution":"Conner High School","State":"Kentucky","Address":"3310 Cougar Path  Hebron  KY 41048  United States","Latitude":"39.06117","Longitude":"-84.6966","Club":"Yes","Seasons":{"Participated":"1"}},
{"field1":"440","Institution":"Connetquot High School","State":"New York","Address":"190 7th St Bohemia NY 11716","Latitude":"40.7825801","Longitude":"-73.1391404","Club":"","Seasons":{"Participated":"1"}},
{"field1":"441","Institution":"ConVal Regional High School","State":"New Hampshire","Address":"184 Hancock Rd Peterborough NH 03458","Latitude":"42.9098023","Longitude":"-71.9406389","Club":"","Seasons":{"Participated":"1"}},
{"field1":"442","Institution":"Cooper High School","State":"Texas","Address":"823 FM1528  Cooper  TX 7543  United States","Latitude":"33.3616","Longitude":"-95.7","Club":"","Seasons":{"Participated":"2"}},
{"field1":"443","Institution":"Coppell High School","State":"Texas","Address":"185 W Parkway Blvd Coppell TX 75019","Latitude":"32.9748078","Longitude":"-96.9987148","Club":"","Seasons":{"Participated":"4"}},
{"field1":"444","Institution":"Copperas Cove High School","State":"Texas","Address":"400 S 25th St Copperas Cove TX 76522","Latitude":"31.1255474","Longitude":"-97.9161858","Club":"","Seasons":{"Participated":"1"}},
{"field1":"445","Institution":"Coral Gables Senior High School","State":"Florida","Address":"450 Bird Rd Coral Gables FL 33146","Latitude":"25.7337719","Longitude":"-80.263209","Club":"","Seasons":{"Participated":"1"}},
{"field1":"446","Institution":"Coral Glades High School","State":"Florida","Address":"2700 Sportsplex Dr  Coral Springs  FL 33065  United States","Latitude":"26.2635","Longitude":"-80.295","Club":"","Seasons":{"Participated":"2"}},
{"field1":"447","Institution":"Coral Reef Senior High School","State":"Florida","Address":"10101 SW 152nd St  Miami  FL 33157  United States","Latitude":"25.6301","Longitude":"-80.356","Club":"","Seasons":{"Participated":"2"}},